{"type":"FeatureCollection","features":[{"type":"Feature","geometry":{"type":"Point","coordinates":[18.693437019737402,52.876593083453315]},"properties":{"id":173,"name":"Aleksandrów Kujawski","nazwa":"Aleksandrów Kujawski","miasto":"Aleksandrów Kujawski","type":"city","rodzaj":"miasto","wojewodztwo":"Kujawsko-Pomorskie","wojewodztwoId":"kujawsko-pomorskie","powiat":"aleksandrowski","gmina":"Aleksandrów Kujawski"}},{"type":"Feature","geometry":{"type":"Point","coordinates":[19.30379951038738,51.81941711702409]},"properties":{"id":174,"name":"Aleksandrów Łódzki","nazwa":"Aleksandrów Łódzki","miasto":"Aleksandrów Łódzki","type":"city","rodzaj":"miasto","wojewodztwo":"Łódzkie","wojewodztwoId":"lodzkie","powiat":"zgierski","gmina":"Aleksandrów Łódzki"}},{"type":"Feature","geometry":{"type":"Point","coordinates":[19.539570530283562,50.05978105884065]},"properties":{"id":207,"name":"Alwernia","nazwa":"Alwernia","miasto":"Alwernia","type":"city","rodzaj":"miasto","wojewodztwo":"Małopolskie","wojewodztwoId":"malopolskie","powiat":"chrzanowski","gmina":"Alwernia"}},{"type":"Feature","geometry":{"type":"Point","coordinates":[19.337462980263588,49.855164574297184]},"properties":{"id":226,"name":"Andrychów","nazwa":"Andrychów","miasto":"Andrychów","type":"city","rodzaj":"miasto","wojewodztwo":"Małopolskie","wojewodztwoId":"malopolskie","powiat":"wadowicki","gmina":"Andrychów"}},{"type":"Feature","geometry":{"type":"Point","coordinates":[21.856880463545092,50.88537922590313]},"properties":{"id":283,"name":"Annopol","nazwa":"Annopol","miasto":"Annopol","type":"city","rodzaj":"miasto","wojewodztwo":"Lubelskie","wojewodztwoId":"lubelskie","powiat":"kraśnicki","gmina":"Annopol"}},{"type":"Feature","geometry":{"type":"Point","coordinates":[22.98015563066872,53.84416096010555]},"properties":{"id":442,"name":"Augustów","nazwa":"Augustów","miasto":"Augustów","type":"city","rodzaj":"miasto","wojewodztwo":"Podlaskie","wojewodztwoId":"podlaskie","powiat":"augustowski","gmina":"Augustów"}},{"type":"Feature","geometry":{"type":"Point","coordinates":[15.827500603766127,52.164718249069004]},"properties":{"id":486,"name":"Babimost","nazwa":"Babimost","miasto":"Babimost","type":"city","rodzaj":"miasto","wojewodztwo":"Lubuskie","wojewodztwoId":"lubuskie","powiat":"zielonogórski","gmina":"Babimost"}},{"type":"Feature","geometry":{"type":"Point","coordinates":[17.98893500226687,50.157282625049625]},"properties":{"id":505,"name":"Baborów","nazwa":"Baborów","miasto":"Baborów","type":"city","rodzaj":"miasto","wojewodztwo":"Opolskie","wojewodztwoId":"opolskie","powiat":"głubczycki","gmina":"Baborów"}},{"type":"Feature","geometry":{"type":"Point","coordinates":[21.543231547436,50.497251185677]},"properties":{"id":673,"name":"Baranów Sandomierski","nazwa":"Baranów Sandomierski","miasto":"Baranów Sandomierski","type":"city","rodzaj":"miasto","wojewodztwo":"Podkarpackie","wojewodztwoId":"podkarpackie","powiat":"tarnobrzeski","gmina":"Baranów Sandomierski"}},{"type":"Feature","geometry":{"type":"Point","coordinates":[17.941795552818867,52.8577582038362]},"properties":{"id":698,"name":"Barcin","nazwa":"Barcin","miasto":"Barcin","type":"city","rodzaj":"miasto","wojewodztwo":"Kujawsko-Pomorskie","wojewodztwoId":"kujawsko-pomorskie","powiat":"żniński","gmina":"Barcin"}},{"type":"Feature","geometry":{"type":"Point","coordinates":[20.692685143258664,53.830211145528864]},"properties":{"id":707,"name":"Barczewo","nazwa":"Barczewo","miasto":"Barczewo","type":"city","rodzaj":"miasto","wojewodztwo":"Warmińsko-Mazurskie","wojewodztwoId":"warminsko-mazurskie","powiat":"olsztyński","gmina":"Barczewo"}},{"type":"Feature","geometry":{"type":"Point","coordinates":[16.7404185676476,50.5062673717097]},"properties":{"id":715,"name":"Bardo","nazwa":"Bardo","miasto":"Bardo","type":"city","rodzaj":"miasto","wojewodztwo":"Dolnośląskie","wojewodztwoId":"dolnoslaskie","powiat":"ząbkowicki","gmina":"Bardo"}},{"type":"Feature","geometry":{"type":"Point","coordinates":[15.2194514523627,52.9972518139766]},"properties":{"id":736,"name":"Barlinek","nazwa":"Barlinek","miasto":"Barlinek","type":"city","rodzaj":"miasto","wojewodztwo":"Zachodniopomorskie","wojewodztwoId":"zachodniopomorskie","powiat":"myśliborski","gmina":"Barlinek"}},{"type":"Feature","geometry":{"type":"Point","coordinates":[20.8095290489956,54.2509884834402]},"properties":{"id":788,"name":"Bartoszyce","nazwa":"Bartoszyce","miasto":"Bartoszyce","type":"city","rodzaj":"miasto","wojewodztwo":"Warmińsko-Mazurskie","wojewodztwoId":"warminsko-mazurskie","powiat":"bartoszycki","gmina":"Bartoszyce"}},{"type":"Feature","geometry":{"type":"Point","coordinates":[16.355529136093146,53.74478316417474]},"properties":{"id":808,"name":"Barwice","nazwa":"Barwice","miasto":"Barwice","type":"city","rodzaj":"miasto","wojewodztwo":"Zachodniopomorskie","wojewodztwoId":"zachodniopomorskie","powiat":"szczecinecki","gmina":"Barwice"}},{"type":"Feature","geometry":{"type":"Point","coordinates":[19.3650882670883,51.3624745643498]},"properties":{"id":992,"name":"Bełchatów","nazwa":"Bełchatów","miasto":"Bełchatów","type":"city","rodzaj":"miasto","wojewodztwo":"Łódzkie","wojewodztwoId":"lodzkie","powiat":"bełchatowski","gmina":"Bełchatów"}},{"type":"Feature","geometry":{"type":"Point","coordinates":[22.281859110425298,51.174581645763816]},"properties":{"id":1018,"name":"Bełżyce","nazwa":"Bełżyce","miasto":"Bełżyce","type":"city","rodzaj":"miasto","wojewodztwo":"Lubelskie","wojewodztwoId":"lubelskie","powiat":"lubelski","gmina":"Bełżyce"}},{"type":"Feature","geometry":{"type":"Point","coordinates":[17.660114608667964,50.38574145245365]},"properties":{"id":1047,"name":"Biała","nazwa":"Biała","miasto":"Biała","type":"city","rodzaj":"miasto","wojewodztwo":"Opolskie","wojewodztwoId":"opolskie","powiat":"prudnicki","gmina":"Biała"}},{"type":"Feature","geometry":{"type":"Point","coordinates":[22.0618794349634,53.6108038892428]},"properties":{"id":1067,"name":"Biała Piska","nazwa":"Biała Piska","miasto":"Biała Piska","type":"city","rodzaj":"miasto","wojewodztwo":"Warmińsko-Mazurskie","wojewodztwoId":"warminsko-mazurskie","powiat":"piski","gmina":"Biała Piska"}},{"type":"Feature","geometry":{"type":"Point","coordinates":[23.116484437641603,52.03242276216771]},"properties":{"id":1068,"name":"Biała Podlaska","nazwa":"Biała Podlaska","miasto":"Biała Podlaska","type":"city","rodzaj":"miasto","wojewodztwo":"Lubelskie","wojewodztwoId":"lubelskie","powiat":"Biała Podlaska","gmina":"Biała Podlaska"}},{"type":"Feature","geometry":{"type":"Point","coordinates":[20.47416667,51.80833333]},"properties":{"id":1069,"name":"Biała Rawska","nazwa":"Biała Rawska","miasto":"Biała Rawska","type":"city","rodzaj":"miasto","wojewodztwo":"Łódzkie","wojewodztwoId":"lodzkie","powiat":"rawski","gmina":"Biała Rawska"}},{"type":"Feature","geometry":{"type":"Point","coordinates":[20.29653247674295,51.29816699495243]},"properties":{"id":1084,"name":"Białaczów","nazwa":"Białaczów","miasto":"Białaczów","type":"city","rodzaj":"miasto","wojewodztwo":"Łódzkie","wojewodztwoId":"lodzkie","powiat":"opoczyński","gmina":"Białaczów"}},{"type":"Feature","geometry":{"type":"Point","coordinates":[20.953901539594003,51.64542696009126]},"properties":{"id":1154,"name":"Białobrzegi","nazwa":"Białobrzegi","miasto":"Białobrzegi","type":"city","rodzaj":"miasto","wojewodztwo":"Mazowieckie","wojewodztwoId":"mazowieckie","powiat":"białobrzeski","gmina":"Białobrzegi"}},{"type":"Feature","geometry":{"type":"Point","coordinates":[15.985874115873761,54.00793267632755]},"properties":{"id":1172,"name":"Białogard","nazwa":"Białogard","miasto":"Białogard","type":"city","rodzaj":"miasto","wojewodztwo":"Zachodniopomorskie","wojewodztwoId":"zachodniopomorskie","powiat":"białogardzki","gmina":"Białogard"}},{"type":"Feature","geometry":{"type":"Point","coordinates":[16.835242541924217,53.89640988788256]},"properties":{"id":1217,"name":"Biały Bór","nazwa":"Biały Bór","miasto":"Biały Bór","type":"city","rodzaj":"miasto","wojewodztwo":"Zachodniopomorskie","wojewodztwoId":"zachodniopomorskie","powiat":"szczecinecki","gmina":"Biały Bór"}},{"type":"Feature","geometry":{"type":"Point","coordinates":[23.168725232465,53.13228062715]},"properties":{"id":1238,"name":"Białystok","nazwa":"Białystok","miasto":"Białystok","type":"city","rodzaj":"miasto","wojewodztwo":"Podlaskie","wojewodztwoId":"podlaskie","powiat":"Białystok","gmina":"Białystok"}},{"type":"Feature","geometry":{"type":"Point","coordinates":[21.253770161980388,49.731033103285775]},"properties":{"id":1266,"name":"Biecz","nazwa":"Biecz","miasto":"Biecz","type":"city","rodzaj":"miasto","wojewodztwo":"Małopolskie","wojewodztwoId":"malopolskie","powiat":"gorlicki","gmina":"Biecz"}},{"type":"Feature","geometry":{"type":"Point","coordinates":[16.6118045927207,50.6845290102439]},"properties":{"id":1319,"name":"Bielawa","nazwa":"Bielawa","miasto":"Bielawa","type":"city","rodzaj":"miasto","wojewodztwo":"Dolnośląskie","wojewodztwoId":"dolnoslaskie","powiat":"dzierżoniowski","gmina":"Bielawa"}},{"type":"Feature","geometry":{"type":"Point","coordinates":[23.191638013432083,52.76863509923044]},"properties":{"id":1411,"name":"Bielsk Podlaski","nazwa":"Bielsk Podlaski","miasto":"Bielsk Podlaski","type":"city","rodzaj":"miasto","wojewodztwo":"Podlaskie","wojewodztwoId":"podlaskie","powiat":"bielski","gmina":"Bielsk Podlaski"}},{"type":"Feature","geometry":{"type":"Point","coordinates":[19.045058240546,49.822245231839]},"properties":{"id":1417,"name":"Bielsko-Biała","nazwa":"Bielsko-Biała","miasto":"Bielsko-Biała","type":"city","rodzaj":"miasto","wojewodztwo":"Śląskie","wojewodztwoId":"slaskie","powiat":"Bielsko-Biała","gmina":"Bielsko-Biała"}},{"type":"Feature","geometry":{"type":"Point","coordinates":[17.5440855551091,51.1253135934931]},"properties":{"id":1462,"name":"Bierutów","nazwa":"Bierutów","miasto":"Bierutów","type":"city","rodzaj":"miasto","wojewodztwo":"Dolnośląskie","wojewodztwoId":"dolnoslaskie","powiat":"oleśnicki","gmina":"Bierutów"}},{"type":"Feature","geometry":{"type":"Point","coordinates":[19.0911304366414,50.0917131996847]},"properties":{"id":1463,"name":"Bieruń","nazwa":"Bieruń","miasto":"Bieruń","type":"city","rodzaj":"miasto","wojewodztwo":"Śląskie","wojewodztwoId":"slaskie","powiat":"bieruńsko-lędziński","gmina":"Bieruń"}},{"type":"Feature","geometry":{"type":"Point","coordinates":[19.888459230461912,52.95961102681492]},"properties":{"id":1523,"name":"Bieżuń","nazwa":"Bieżuń","miasto":"Bieżuń","type":"city","rodzaj":"miasto","wojewodztwo":"Mazowieckie","wojewodztwoId":"mazowieckie","powiat":"żuromiński","gmina":"Bieżuń"}},{"type":"Feature","geometry":{"type":"Point","coordinates":[22.4778121373243,49.6917027177298]},"properties":{"id":1559,"name":"Bircza","nazwa":"Bircza","miasto":"Bircza","type":"city","rodzaj":"miasto","wojewodztwo":"Podkarpackie","wojewodztwoId":"podkarpackie","powiat":"przemyski","gmina":"Bircza"}},{"type":"Feature","geometry":{"type":"Point","coordinates":[20.95627180962251,53.86335903110674]},"properties":{"id":1600,"name":"Biskupiec","nazwa":"Biskupiec","miasto":"Biskupiec","type":"city","rodzaj":"miasto","wojewodztwo":"Warmińsko-Mazurskie","wojewodztwoId":"warminsko-mazurskie","powiat":"olsztyński","gmina":"Biskupiec"}},{"type":"Feature","geometry":{"type":"Point","coordinates":[20.9014313404639,54.0860186142307]},"properties":{"id":1611,"name":"Bisztynek","nazwa":"Bisztynek","miasto":"Bisztynek","type":"city","rodzaj":"miasto","wojewodztwo":"Warmińsko-Mazurskie","wojewodztwoId":"warminsko-mazurskie","powiat":"bartoszycki","gmina":"Bisztynek"}},{"type":"Feature","geometry":{"type":"Point","coordinates":[22.72031204397431,50.53546289928044]},"properties":{"id":1619,"name":"Biłgoraj","nazwa":"Biłgoraj","miasto":"Biłgoraj","type":"city","rodzaj":"miasto","wojewodztwo":"Lubelskie","wojewodztwoId":"lubelskie","powiat":"biłgorajski","gmina":"Biłgoraj"}},{"type":"Feature","geometry":{"type":"Point","coordinates":[18.9625440280631,50.7841680019218]},"properties":{"id":1621,"name":"Blachownia","nazwa":"Blachownia","miasto":"Blachownia","type":"city","rodzaj":"miasto","wojewodztwo":"Śląskie","wojewodztwoId":"slaskie","powiat":"częstochowski","gmina":"Blachownia"}},{"type":"Feature","geometry":{"type":"Point","coordinates":[16.5894741702685,53.9555586337723]},"properties":{"id":1674,"name":"Bobolice","nazwa":"Bobolice","miasto":"Bobolice","type":"city","rodzaj":"miasto","wojewodztwo":"Zachodniopomorskie","wojewodztwoId":"zachodniopomorskie","powiat":"koszaliński","gmina":"Bobolice"}},{"type":"Feature","geometry":{"type":"Point","coordinates":[20.945097854835492,49.70888658065288]},"properties":{"id":1681,"name":"Bobowa","nazwa":"Bobowa","miasto":"Bobowa","type":"city","rodzaj":"miasto","wojewodztwo":"Małopolskie","wojewodztwoId":"malopolskie","powiat":"gorlicki","gmina":"Bobowa"}},{"type":"Feature","geometry":{"type":"Point","coordinates":[18.954748771086276,52.77849065639641]},"properties":{"id":1714,"name":"Bobrowniki","nazwa":"Bobrowniki","miasto":"Bobrowniki","type":"city","rodzaj":"miasto","wojewodztwo":"Kujawsko-Pomorskie","wojewodztwoId":"kujawsko-pomorskie","powiat":"lipnowski","gmina":"Bobrowniki"}},{"type":"Feature","geometry":{"type":"Point","coordinates":[20.4325996298721,49.9693214638359]},"properties":{"id":1751,"name":"Bochnia","nazwa":"Bochnia","miasto":"Bochnia","type":"city","rodzaj":"miasto","wojewodztwo":"Małopolskie","wojewodztwoId":"malopolskie","powiat":"bocheński","gmina":"Bochnia"}},{"type":"Feature","geometry":{"type":"Point","coordinates":[20.032446599069562,52.500007485864494]},"properties":{"id":1786,"name":"Bodzanów","nazwa":"Bodzanów","miasto":"Bodzanów","type":"city","rodzaj":"miasto","wojewodztwo":"Mazowieckie","wojewodztwoId":"mazowieckie","powiat":"płocki","gmina":"Bodzanów"}},{"type":"Feature","geometry":{"type":"Point","coordinates":[20.9569594442055,50.9410480085562]},"properties":{"id":1791,"name":"Bodzentyn","nazwa":"Bodzentyn","miasto":"Bodzentyn","type":"city","rodzaj":"miasto","wojewodztwo":"Świętokrzyskie","wojewodztwoId":"swietokrzyskie","powiat":"kielecki","gmina":"Bodzentyn"}},{"type":"Feature","geometry":{"type":"Point","coordinates":[14.9572177950172,50.9047039331083]},"properties":{"id":1811,"name":"Bogatynia","nazwa":"Bogatynia","miasto":"Bogatynia","type":"city","rodzaj":"miasto","wojewodztwo":"Dolnośląskie","wojewodztwoId":"dolnoslaskie","powiat":"zgorzelecki","gmina":"Bogatynia"}},{"type":"Feature","geometry":{"type":"Point","coordinates":[21.260549484348907,50.65132426901142]},"properties":{"id":1841,"name":"Bogoria","nazwa":"Bogoria","miasto":"Bogoria","type":"city","rodzaj":"miasto","wojewodztwo":"Świętokrzyskie","wojewodztwoId":"swietokrzyskie","powiat":"staszowski","gmina":"Bogoria"}},{"type":"Feature","geometry":{"type":"Point","coordinates":[21.9395900771145,49.982286988589]},"properties":{"id":1849,"name":"Boguchwała","nazwa":"Boguchwała","miasto":"Boguchwała","type":"city","rodzaj":"miasto","wojewodztwo":"Podkarpackie","wojewodztwoId":"podkarpackie","powiat":"rzeszowski","gmina":"Boguchwała"}},{"type":"Feature","geometry":{"type":"Point","coordinates":[16.2049768032954,50.7559308146626]},"properties":{"id":1916,"name":"Boguszów-Gorce","nazwa":"Boguszów-Gorce","miasto":"Boguszów-Gorce","type":"city","rodzaj":"miasto","wojewodztwo":"Dolnośląskie","wojewodztwoId":"dolnoslaskie","powiat":"wałbrzyski","gmina":"Boguszów-Gorce"}},{"type":"Feature","geometry":{"type":"Point","coordinates":[16.7489017340665,51.7074193256355]},"properties":{"id":1959,"name":"Bojanowo","nazwa":"Bojanowo","miasto":"Bojanowo","type":"city","rodzaj":"miasto","wojewodztwo":"Wielkopolskie","wojewodztwoId":"wielkopolskie","powiat":"rawicki","gmina":"Bojanowo"}},{"type":"Feature","geometry":{"type":"Point","coordinates":[18.191323924235135,51.198828753392675]},"properties":{"id":2013,"name":"Bolesławiec","nazwa":"Bolesławiec","miasto":"Bolesławiec","type":"city","rodzaj":"miasto","wojewodztwo":"Łódzkie","wojewodztwoId":"lodzkie","powiat":"wieruszowski","gmina":"Bolesławiec"}},{"type":"Feature","geometry":{"type":"Point","coordinates":[15.5648023622634,51.2630272713902]},"properties":{"id":2015,"name":"Bolesławiec","nazwa":"Bolesławiec","miasto":"Bolesławiec","type":"city","rodzaj":"miasto","wojewodztwo":"Dolnośląskie","wojewodztwoId":"dolnoslaskie","powiat":"bolesławiecki","gmina":"Bolesławiec"}},{"type":"Feature","geometry":{"type":"Point","coordinates":[20.163618557559,52.07643783264]},"properties":{"id":2036,"name":"Bolimów","nazwa":"Bolimów","miasto":"Bolimów","type":"city","rodzaj":"miasto","wojewodztwo":"Łódzkie","wojewodztwoId":"lodzkie","powiat":"skierniewicki","gmina":"Bolimów"}},{"type":"Feature","geometry":{"type":"Point","coordinates":[16.1006629044393,50.9221591423196]},"properties":{"id":2041,"name":"Bolków","nazwa":"Bolków","miasto":"Bolków","type":"city","rodzaj":"miasto","wojewodztwo":"Dolnośląskie","wojewodztwoId":"dolnoslaskie","powiat":"jaworski","gmina":"Bolków"}},{"type":"Feature","geometry":{"type":"Point","coordinates":[17.2422339924342,51.9164696188521]},"properties":{"id":2131,"name":"Borek Wielkopolski","nazwa":"Borek Wielkopolski","miasto":"Borek Wielkopolski","type":"city","rodzaj":"miasto","wojewodztwo":"Wielkopolskie","wojewodztwoId":"wielkopolskie","powiat":"gostyński","gmina":"Borek Wielkopolski"}},{"type":"Feature","geometry":{"type":"Point","coordinates":[16.54134809270458,53.58373098526024]},"properties":{"id":2223,"name":"Borne Sulinowo","nazwa":"Borne Sulinowo","miasto":"Borne Sulinowo","type":"city","rodzaj":"miasto","wojewodztwo":"Zachodniopomorskie","wojewodztwoId":"zachodniopomorskie","powiat":"szczecinecki","gmina":"Borne Sulinowo"}},{"type":"Feature","geometry":{"type":"Point","coordinates":[19.8217168060041,54.3822686457647]},"properties":{"id":2557,"name":"Braniewo","nazwa":"Braniewo","miasto":"Braniewo","type":"city","rodzaj":"miasto","wojewodztwo":"Warmińsko-Mazurskie","wojewodztwoId":"warminsko-mazurskie","powiat":"braniewski","gmina":"Braniewo"}},{"type":"Feature","geometry":{"type":"Point","coordinates":[22.84141378386425,52.74327124994266]},"properties":{"id":2579,"name":"Brańsk","nazwa":"Brańsk","miasto":"Brańsk","type":"city","rodzaj":"miasto","wojewodztwo":"Podlaskie","wojewodztwoId":"podlaskie","powiat":"bielski","gmina":"Brańsk"}},{"type":"Feature","geometry":{"type":"Point","coordinates":[19.4027344135497,53.2564185337457]},"properties":{"id":2623,"name":"Brodnica","nazwa":"Brodnica","miasto":"Brodnica","type":"city","rodzaj":"miasto","wojewodztwo":"Kujawsko-Pomorskie","wojewodztwoId":"kujawsko-pomorskie","powiat":"brodnicki","gmina":"Brodnica"}},{"type":"Feature","geometry":{"type":"Point","coordinates":[14.775206493145232,51.78704883147833]},"properties":{"id":2648,"name":"Brody","nazwa":"Brody","miasto":"Brody","type":"city","rodzaj":"miasto","wojewodztwo":"Lubuskie","wojewodztwoId":"lubuskie","powiat":"żarski","gmina":"Brody"}},{"type":"Feature","geometry":{"type":"Point","coordinates":[21.85749517758064,52.698389664359865]},"properties":{"id":2670,"name":"Brok","nazwa":"Brok","miasto":"Brok","type":"city","rodzaj":"miasto","wojewodztwo":"Mazowieckie","wojewodztwoId":"mazowieckie","powiat":"ostrowski","gmina":"Brok"}},{"type":"Feature","geometry":{"type":"Point","coordinates":[17.724294298016602,53.88519328075247]},"properties":{"id":2835,"name":"Brusy","nazwa":"Brusy","miasto":"Brusy","type":"city","rodzaj":"miasto","wojewodztwo":"Pomorskie","wojewodztwoId":"pomorskie","powiat":"chojnicki","gmina":"Brusy"}},{"type":"Feature","geometry":{"type":"Point","coordinates":[20.716941163141133,52.14216272981408]},"properties":{"id":2850,"name":"Brwinów","nazwa":"Brwinów","miasto":"Brwinów","type":"city","rodzaj":"miasto","wojewodztwo":"Mazowieckie","wojewodztwoId":"mazowieckie","powiat":"pruszkowski","gmina":"Brwinów"}},{"type":"Feature","geometry":{"type":"Point","coordinates":[17.4699174477905,50.8616426846768]},"properties":{"id":2879,"name":"Brzeg","nazwa":"Brzeg","miasto":"Brzeg","type":"city","rodzaj":"miasto","wojewodztwo":"Opolskie","wojewodztwoId":"opolskie","powiat":"brzeski","gmina":"Brzeg"}},{"type":"Feature","geometry":{"type":"Point","coordinates":[16.7196705036177,51.2603219377056]},"properties":{"id":2882,"name":"Brzeg Dolny","nazwa":"Brzeg Dolny","miasto":"Brzeg Dolny","type":"city","rodzaj":"miasto","wojewodztwo":"Dolnośląskie","wojewodztwoId":"dolnoslaskie","powiat":"wołowski","gmina":"Brzeg Dolny"}},{"type":"Feature","geometry":{"type":"Point","coordinates":[20.60777778,49.96833333]},"properties":{"id":2898,"name":"Brzesko","nazwa":"Brzesko","miasto":"Brzesko","type":"city","rodzaj":"miasto","wojewodztwo":"Małopolskie","wojewodztwoId":"malopolskie","powiat":"brzeski","gmina":"Brzesko"}},{"type":"Feature","geometry":{"type":"Point","coordinates":[19.1440681224315,49.9829518912234]},"properties":{"id":2900,"name":"Brzeszcze","nazwa":"Brzeszcze","miasto":"Brzeszcze","type":"city","rodzaj":"miasto","wojewodztwo":"Małopolskie","wojewodztwoId":"malopolskie","powiat":"oświęcimski","gmina":"Brzeszcze"}},{"type":"Feature","geometry":{"type":"Point","coordinates":[19.753496160999,51.7996381797357]},"properties":{"id":2969,"name":"Brzeziny","nazwa":"Brzeziny","miasto":"Brzeziny","type":"city","rodzaj":"miasto","wojewodztwo":"Łódzkie","wojewodztwoId":"lodzkie","powiat":"brzeziński","gmina":"Brzeziny"}},{"type":"Feature","geometry":{"type":"Point","coordinates":[18.9006907878427,52.6063969287471]},"properties":{"id":3023,"name":"Brześć Kujawski","nazwa":"Brześć Kujawski","miasto":"Brześć Kujawski","type":"city","rodzaj":"miasto","wojewodztwo":"Kujawsko-Pomorskie","wojewodztwoId":"kujawsko-pomorskie","powiat":"włocławski","gmina":"Brześć Kujawski"}},{"type":"Feature","geometry":{"type":"Point","coordinates":[21.411651613121453,49.879119955607614]},"properties":{"id":3088,"name":"Brzostek","nazwa":"Brzostek","miasto":"Brzostek","type":"city","rodzaj":"miasto","wojewodztwo":"Podkarpackie","wojewodztwoId":"podkarpackie","powiat":"dębicki","gmina":"Brzostek"}},{"type":"Feature","geometry":{"type":"Point","coordinates":[22.0193667584436,49.6943044140264]},"properties":{"id":3163,"name":"Brzozów","nazwa":"Brzozów","miasto":"Brzozów","type":"city","rodzaj":"miasto","wojewodztwo":"Podkarpackie","wojewodztwoId":"podkarpackie","powiat":"brzozowski","gmina":"Brzozów"}},{"type":"Feature","geometry":{"type":"Point","coordinates":[16.988036998508157,52.89015762783088]},"properties":{"id":3509,"name":"Budzyń","nazwa":"Budzyń","miasto":"Budzyń","type":"city","rodzaj":"miasto","wojewodztwo":"Wielkopolskie","wojewodztwoId":"wielkopolskie","powiat":"chodzieski","gmina":"Budzyń"}},{"type":"Feature","geometry":{"type":"Point","coordinates":[16.519659372392272,52.35536211984735]},"properties":{"id":3556,"name":"Buk","nazwa":"Buk","miasto":"Buk","type":"city","rodzaj":"miasto","wojewodztwo":"Wielkopolskie","wojewodztwoId":"wielkopolskie","powiat":"poznański","gmina":"Buk"}},{"type":"Feature","geometry":{"type":"Point","coordinates":[19.462759213138586,50.267596362461404]},"properties":{"id":3624,"name":"Bukowno","nazwa":"Bukowno","miasto":"Bukowno","type":"city","rodzaj":"miasto","wojewodztwo":"Małopolskie","wojewodztwoId":"malopolskie","powiat":"olkuski","gmina":"Bukowno"}},{"type":"Feature","geometry":{"type":"Point","coordinates":[20.719744280822376,50.47067099469573]},"properties":{"id":3692,"name":"Busko-Zdrój","nazwa":"Busko-Zdrój","miasto":"Busko-Zdrój","type":"city","rodzaj":"miasto","wojewodztwo":"Świętokrzyskie","wojewodztwoId":"swietokrzyskie","powiat":"buski","gmina":"Busko-Zdrój"}},{"type":"Feature","geometry":{"type":"Point","coordinates":[22.535131740295174,51.014870370034345]},"properties":{"id":3730,"name":"Bychawa","nazwa":"Bychawa","miasto":"Bychawa","type":"city","rodzaj":"miasto","wojewodztwo":"Lubelskie","wojewodztwoId":"lubelskie","powiat":"lubelski","gmina":"Bychawa"}},{"type":"Feature","geometry":{"type":"Point","coordinates":[18.21421870664,51.1140673474303]},"properties":{"id":3744,"name":"Byczyna","nazwa":"Byczyna","miasto":"Byczyna","type":"city","rodzaj":"miasto","wojewodztwo":"Opolskie","wojewodztwoId":"opolskie","powiat":"kluczborski","gmina":"Byczyna"}},{"type":"Feature","geometry":{"type":"Point","coordinates":[18.0014338271279,53.125394244618]},"properties":{"id":3748,"name":"Bydgoszcz","nazwa":"Bydgoszcz","miasto":"Bydgoszcz","type":"city","rodzaj":"miasto","wojewodztwo":"Kujawsko-Pomorskie","wojewodztwoId":"kujawsko-pomorskie","powiat":"Bydgoszcz","gmina":"Bydgoszcz"}},{"type":"Feature","geometry":{"type":"Point","coordinates":[16.6502933068072,50.2975408661027]},"properties":{"id":3799,"name":"Bystrzyca Kłodzka","nazwa":"Bystrzyca Kłodzka","miasto":"Bystrzyca Kłodzka","type":"city","rodzaj":"miasto","wojewodztwo":"Dolnośląskie","wojewodztwoId":"dolnoslaskie","powiat":"kłodzki","gmina":"Bystrzyca Kłodzka"}},{"type":"Feature","geometry":{"type":"Point","coordinates":[18.915675550017,50.348406529226]},"properties":{"id":3828,"name":"Bytom","nazwa":"Bytom","miasto":"Bytom","type":"city","rodzaj":"miasto","wojewodztwo":"Śląskie","wojewodztwoId":"slaskie","powiat":"Bytom","gmina":"Bytom"}},{"type":"Feature","geometry":{"type":"Point","coordinates":[15.825374266227481,51.729628372281326]},"properties":{"id":3829,"name":"Bytom Odrzański","nazwa":"Bytom Odrzański","miasto":"Bytom Odrzański","type":"city","rodzaj":"miasto","wojewodztwo":"Lubuskie","wojewodztwoId":"lubuskie","powiat":"nowosolski","gmina":"Bytom Odrzański"}},{"type":"Feature","geometry":{"type":"Point","coordinates":[17.489297339277993,54.16981557039524]},"properties":{"id":3837,"name":"Bytów","nazwa":"Bytów","miasto":"Bytów","type":"city","rodzaj":"miasto","wojewodztwo":"Pomorskie","wojewodztwoId":"pomorskie","powiat":"bytowski","gmina":"Bytów"}},{"type":"Feature","geometry":{"type":"Point","coordinates":[19.1358465656671,50.324292715873]},"properties":{"id":3965,"name":"Będzin","nazwa":"Będzin","miasto":"Będzin","type":"city","rodzaj":"miasto","wojewodztwo":"Śląskie","wojewodztwoId":"slaskie","powiat":"będziński","gmina":"Będzin"}},{"type":"Feature","geometry":{"type":"Point","coordinates":[18.4377429707713,51.6516747145393]},"properties":{"id":3983,"name":"Błaszki","nazwa":"Błaszki","miasto":"Błaszki","type":"city","rodzaj":"miasto","wojewodztwo":"Łódzkie","wojewodztwoId":"lodzkie","powiat":"sieradzki","gmina":"Błaszki"}},{"type":"Feature","geometry":{"type":"Point","coordinates":[22.1006144556099,49.8853302014999]},"properties":{"id":4001,"name":"Błażowa","nazwa":"Błażowa","miasto":"Błażowa","type":"city","rodzaj":"miasto","wojewodztwo":"Podkarpackie","wojewodztwoId":"podkarpackie","powiat":"rzeszowski","gmina":"Błażowa"}},{"type":"Feature","geometry":{"type":"Point","coordinates":[20.61784454384964,52.195039377302805]},"properties":{"id":4034,"name":"Błonie","nazwa":"Błonie","miasto":"Błonie","type":"city","rodzaj":"miasto","wojewodztwo":"Mazowieckie","wojewodztwoId":"mazowieckie","powiat":"warszawski zachodni","gmina":"Błonie"}},{"type":"Feature","geometry":{"type":"Point","coordinates":[14.2033018189809,52.8782629117991]},"properties":{"id":4095,"name":"Cedynia","nazwa":"Cedynia","miasto":"Cedynia","type":"city","rodzaj":"miasto","wojewodztwo":"Zachodniopomorskie","wojewodztwoId":"zachodniopomorskie","powiat":"gryfiński","gmina":"Cedynia"}},{"type":"Feature","geometry":{"type":"Point","coordinates":[21.74004494661108,52.146940307367075]},"properties":{"id":4117,"name":"Cegłów","nazwa":"Cegłów","miasto":"Cegłów","type":"city","rodzaj":"miasto","wojewodztwo":"Mazowieckie","wojewodztwoId":"mazowieckie","powiat":"miński","gmina":"Cegłów"}},{"type":"Feature","geometry":{"type":"Point","coordinates":[23.470163513740218,51.13359940766411]},"properties":{"id":4281,"name":"Chełm","nazwa":"Chełm","miasto":"Chełm","type":"city","rodzaj":"miasto","wojewodztwo":"Lubelskie","wojewodztwoId":"lubelskie","powiat":"Chełm","gmina":"Chełm"}},{"type":"Feature","geometry":{"type":"Point","coordinates":[19.25833333,50.10055556]},"properties":{"id":4294,"name":"Chełmek","nazwa":"Chełmek","miasto":"Chełmek","type":"city","rodzaj":"miasto","wojewodztwo":"Małopolskie","wojewodztwoId":"malopolskie","powiat":"oświęcimski","gmina":"Chełmek"}},{"type":"Feature","geometry":{"type":"Point","coordinates":[18.4302154426386,53.350653002097]},"properties":{"id":4306,"name":"Chełmno","nazwa":"Chełmno","miasto":"Chełmno","type":"city","rodzaj":"miasto","wojewodztwo":"Kujawsko-Pomorskie","wojewodztwoId":"kujawsko-pomorskie","powiat":"chełmiński","gmina":"Chełmno"}},{"type":"Feature","geometry":{"type":"Point","coordinates":[18.61055500598507,53.18595704143355]},"properties":{"id":4313,"name":"Chełmża","nazwa":"Chełmża","miasto":"Chełmża","type":"city","rodzaj":"miasto","wojewodztwo":"Kujawsko-Pomorskie","wojewodztwoId":"kujawsko-pomorskie","powiat":"toruński","gmina":"Chełmża"}},{"type":"Feature","geometry":{"type":"Point","coordinates":[20.7517803568395,50.6143257611973]},"properties":{"id":4396,"name":"Chmielnik","nazwa":"Chmielnik","miasto":"Chmielnik","type":"city","rodzaj":"miasto","wojewodztwo":"Świętokrzyskie","wojewodztwoId":"swietokrzyskie","powiat":"kielecki","gmina":"Chmielnik"}},{"type":"Feature","geometry":{"type":"Point","coordinates":[15.9025401485922,51.4198394587579]},"properties":{"id":4433,"name":"Chocianów","nazwa":"Chocianów","miasto":"Chocianów","type":"city","rodzaj":"miasto","wojewodztwo":"Dolnośląskie","wojewodztwoId":"dolnoslaskie","powiat":"polkowicki","gmina":"Chocianów"}},{"type":"Feature","geometry":{"type":"Point","coordinates":[15.33347868383301,53.466884830066306]},"properties":{"id":4461,"name":"Chociwel","nazwa":"Chociwel","miasto":"Chociwel","type":"city","rodzaj":"miasto","wojewodztwo":"Zachodniopomorskie","wojewodztwoId":"zachodniopomorskie","powiat":"stargardzki","gmina":"Chociwel"}},{"type":"Feature","geometry":{"type":"Point","coordinates":[17.8703401627772,51.9769959164513]},"properties":{"id":4465,"name":"Chocz","nazwa":"Chocz","miasto":"Chocz","type":"city","rodzaj":"miasto","wojewodztwo":"Wielkopolskie","wojewodztwoId":"wielkopolskie","powiat":"pleszewski","gmina":"Chocz"}},{"type":"Feature","geometry":{"type":"Point","coordinates":[19.027456464573948,52.404840975551316]},"properties":{"id":4473,"name":"Chodecz","nazwa":"Chodecz","miasto":"Chodecz","type":"city","rodzaj":"miasto","wojewodztwo":"Kujawsko-Pomorskie","wojewodztwoId":"kujawsko-pomorskie","powiat":"włocławski","gmina":"Chodecz"}},{"type":"Feature","geometry":{"type":"Point","coordinates":[16.9154071462517,52.9923019336914]},"properties":{"id":4497,"name":"Chodzież","nazwa":"Chodzież","miasto":"Chodzież","type":"city","rodzaj":"miasto","wojewodztwo":"Wielkopolskie","wojewodztwoId":"wielkopolskie","powiat":"chodzieski","gmina":"Chodzież"}},{"type":"Feature","geometry":{"type":"Point","coordinates":[14.427353387590196,52.963594792253275]},"properties":{"id":4523,"name":"Chojna","nazwa":"Chojna","miasto":"Chojna","type":"city","rodzaj":"miasto","wojewodztwo":"Zachodniopomorskie","wojewodztwoId":"zachodniopomorskie","powiat":"gryfiński","gmina":"Chojna"}},{"type":"Feature","geometry":{"type":"Point","coordinates":[17.5667669498336,53.69432253075697]},"properties":{"id":4528,"name":"Chojnice","nazwa":"Chojnice","miasto":"Chojnice","type":"city","rodzaj":"miasto","wojewodztwo":"Pomorskie","wojewodztwoId":"pomorskie","powiat":"chojnicki","gmina":"Chojnice"}},{"type":"Feature","geometry":{"type":"Point","coordinates":[15.9364621742149,51.2733934266784]},"properties":{"id":4557,"name":"Chojnów","nazwa":"Chojnów","miasto":"Chojnów","type":"city","rodzaj":"miasto","wojewodztwo":"Dolnośląskie","wojewodztwoId":"dolnoslaskie","powiat":"legnicki","gmina":"Chojnów"}},{"type":"Feature","geometry":{"type":"Point","coordinates":[22.991806644573,53.14507491906]},"properties":{"id":4598,"name":"Choroszcz","nazwa":"Choroszcz","miasto":"Choroszcz","type":"city","rodzaj":"miasto","wojewodztwo":"Podlaskie","wojewodztwoId":"podlaskie","powiat":"białostocki","gmina":"Choroszcz"}},{"type":"Feature","geometry":{"type":"Point","coordinates":[20.897045821424744,53.26018910360926]},"properties":{"id":4608,"name":"Chorzele","nazwa":"Chorzele","miasto":"Chorzele","type":"city","rodzaj":"miasto","wojewodztwo":"Mazowieckie","wojewodztwoId":"mazowieckie","powiat":"przasnyski","gmina":"Chorzele"}},{"type":"Feature","geometry":{"type":"Point","coordinates":[18.952414875506,50.299455469386]},"properties":{"id":4620,"name":"Chorzów","nazwa":"Chorzów","miasto":"Chorzów","type":"city","rodzaj":"miasto","wojewodztwo":"Śląskie","wojewodztwoId":"slaskie","powiat":"Chorzów","gmina":"Chorzów"}},{"type":"Feature","geometry":{"type":"Point","coordinates":[15.419589684789,53.1673931804367]},"properties":{"id":4639,"name":"Choszczno","nazwa":"Choszczno","miasto":"Choszczno","type":"city","rodzaj":"miasto","wojewodztwo":"Zachodniopomorskie","wojewodztwoId":"zachodniopomorskie","powiat":"choszczeński","gmina":"Choszczno"}},{"type":"Feature","geometry":{"type":"Point","coordinates":[19.4113417586863,50.1416174606686]},"properties":{"id":4780,"name":"Chrzanów","nazwa":"Chrzanów","miasto":"Chrzanów","type":"city","rodzaj":"miasto","wojewodztwo":"Małopolskie","wojewodztwoId":"malopolskie","powiat":"chrzanowski","gmina":"Chrzanów"}},{"type":"Feature","geometry":{"type":"Point","coordinates":[20.4623148934968,50.8004928317237]},"properties":{"id":4946,"name":"Chęciny","nazwa":"Chęciny","miasto":"Chęciny","type":"city","rodzaj":"miasto","wojewodztwo":"Świętokrzyskie","wojewodztwoId":"swietokrzyskie","powiat":"kielecki","gmina":"Chęciny"}},{"type":"Feature","geometry":{"type":"Point","coordinates":[22.50014115135569,52.67913412682352]},"properties":{"id":5005,"name":"Ciechanowiec","nazwa":"Ciechanowiec","miasto":"Ciechanowiec","type":"city","rodzaj":"miasto","wojewodztwo":"Podlaskie","wojewodztwoId":"podlaskie","powiat":"wysokomazowiecki","gmina":"Ciechanowiec"}},{"type":"Feature","geometry":{"type":"Point","coordinates":[20.609568477924938,52.88226165836992]},"properties":{"id":5006,"name":"Ciechanów","nazwa":"Ciechanów","miasto":"Ciechanów","type":"city","rodzaj":"miasto","wojewodztwo":"Mazowieckie","wojewodztwoId":"mazowieckie","powiat":"ciechanowski","gmina":"Ciechanów"}},{"type":"Feature","geometry":{"type":"Point","coordinates":[18.7871171296875,52.8787414183966]},"properties":{"id":5014,"name":"Ciechocinek","nazwa":"Ciechocinek","miasto":"Ciechocinek","type":"city","rodzaj":"miasto","wojewodztwo":"Kujawsko-Pomorskie","wojewodztwoId":"kujawsko-pomorskie","powiat":"aleksandrowski","gmina":"Ciechocinek"}},{"type":"Feature","geometry":{"type":"Point","coordinates":[21.575120203655274,51.24841499167862]},"properties":{"id":5103,"name":"Ciepielów","nazwa":"Ciepielów","miasto":"Ciepielów","type":"city","rodzaj":"miasto","wojewodztwo":"Mazowieckie","wojewodztwoId":"mazowieckie","powiat":"lipski","gmina":"Ciepielów"}},{"type":"Feature","geometry":{"type":"Point","coordinates":[23.131660429758107,50.245603790897974]},"properties":{"id":5143,"name":"Cieszanów","nazwa":"Cieszanów","miasto":"Cieszanów","type":"city","rodzaj":"miasto","wojewodztwo":"Podkarpackie","wojewodztwoId":"podkarpackie","powiat":"lubaczowski","gmina":"Cieszanów"}},{"type":"Feature","geometry":{"type":"Point","coordinates":[18.63388889,49.74861111]},"properties":{"id":5164,"name":"Cieszyn","nazwa":"Cieszyn","miasto":"Cieszyn","type":"city","rodzaj":"miasto","wojewodztwo":"Śląskie","wojewodztwoId":"slaskie","powiat":"cieszyński","gmina":"Cieszyn"}},{"type":"Feature","geometry":{"type":"Point","coordinates":[20.97417018,49.78638954]},"properties":{"id":5292,"name":"Ciężkowice","nazwa":"Ciężkowice","miasto":"Ciężkowice","type":"city","rodzaj":"miasto","wojewodztwo":"Małopolskie","wojewodztwoId":"malopolskie","powiat":"tarnowski","gmina":"Ciężkowice"}},{"type":"Feature","geometry":{"type":"Point","coordinates":[14.79587296253491,52.19457363645711]},"properties":{"id":5318,"name":"Cybinka","nazwa":"Cybinka","miasto":"Cybinka","type":"city","rodzaj":"miasto","wojewodztwo":"Lubuskie","wojewodztwoId":"lubuskie","powiat":"słubicki","gmina":"Cybinka"}},{"type":"Feature","geometry":{"type":"Point","coordinates":[16.23327403165767,53.558540927043474]},"properties":{"id":5436,"name":"Czaplinek","nazwa":"Czaplinek","miasto":"Czaplinek","type":"city","rodzaj":"miasto","wojewodztwo":"Zachodniopomorskie","wojewodztwoId":"zachodniopomorskie","powiat":"drawski","gmina":"Czaplinek"}},{"type":"Feature","geometry":{"type":"Point","coordinates":[23.282178786823,53.305847294423]},"properties":{"id":5463,"name":"Czarna Białostocka","nazwa":"Czarna Białostocka","miasto":"Czarna Białostocka","type":"city","rodzaj":"miasto","wojewodztwo":"Podlaskie","wojewodztwoId":"podlaskie","powiat":"białostocki","gmina":"Czarna Białostocka"}},{"type":"Feature","geometry":{"type":"Point","coordinates":[18.099946221505306,53.844513084517104]},"properties":{"id":5483,"name":"Czarna Woda","nazwa":"Czarna Woda","miasto":"Czarna Woda","type":"city","rodzaj":"miasto","wojewodztwo":"Pomorskie","wojewodztwoId":"pomorskie","powiat":"starogardzki","gmina":"Czarna Woda"}},{"type":"Feature","geometry":{"type":"Point","coordinates":[16.940211392107972,53.683550220580976]},"properties":{"id":5492,"name":"Czarne","nazwa":"Czarne","miasto":"Czarne","type":"city","rodzaj":"miasto","wojewodztwo":"Pomorskie","wojewodztwoId":"pomorskie","powiat":"człuchowski","gmina":"Czarne"}},{"type":"Feature","geometry":{"type":"Point","coordinates":[16.565574464381633,52.90529458964752]},"properties":{"id":5514,"name":"Czarnków","nazwa":"Czarnków","miasto":"Czarnków","type":"city","rodzaj":"miasto","wojewodztwo":"Wielkopolskie","wojewodztwoId":"wielkopolskie","powiat":"czarnkowsko-trzcianecki","gmina":"Czarnków"}},{"type":"Feature","geometry":{"type":"Point","coordinates":[19.85301640731913,49.4400534189212]},"properties":{"id":5571,"name":"Czarny Dunajec","nazwa":"Czarny Dunajec","miasto":"Czarny Dunajec","type":"city","rodzaj":"miasto","wojewodztwo":"Małopolskie","wojewodztwoId":"malopolskie","powiat":"nowotarski","gmina":"Czarny Dunajec"}},{"type":"Feature","geometry":{"type":"Point","coordinates":[20.6735388218675,49.833781366524]},"properties":{"id":5641,"name":"Czchów","nazwa":"Czchów","miasto":"Czchów","type":"city","rodzaj":"miasto","wojewodztwo":"Małopolskie","wojewodztwoId":"malopolskie","powiat":"brzeski","gmina":"Czchów"}},{"type":"Feature","geometry":{"type":"Point","coordinates":[19.0071155723242,49.9111808952447]},"properties":{"id":5648,"name":"Czechowice-Dziedzice","nazwa":"Czechowice-Dziedzice","miasto":"Czechowice-Dziedzice","type":"city","rodzaj":"miasto","wojewodztwo":"Śląskie","wojewodztwoId":"slaskie","powiat":"bielski","gmina":"Czechowice-Dziedzice"}},{"type":"Feature","geometry":{"type":"Point","coordinates":[19.0716320176486,50.3151941228894]},"properties":{"id":5685,"name":"Czeladź","nazwa":"Czeladź","miasto":"Czeladź","type":"city","rodzaj":"miasto","wojewodztwo":"Śląskie","wojewodztwoId":"slaskie","powiat":"będziński","gmina":"Czeladź"}},{"type":"Feature","geometry":{"type":"Point","coordinates":[22.63759930027406,51.67478618373018]},"properties":{"id":5693,"name":"Czemierniki","nazwa":"Czemierniki","miasto":"Czemierniki","type":"city","rodzaj":"miasto","wojewodztwo":"Lubelskie","wojewodztwoId":"lubelskie","powiat":"radzyński","gmina":"Czemierniki"}},{"type":"Feature","geometry":{"type":"Point","coordinates":[16.761330711993,52.142883221673]},"properties":{"id":5696,"name":"Czempiń","nazwa":"Czempiń","miasto":"Czempiń","type":"city","rodzaj":"miasto","wojewodztwo":"Wielkopolskie","wojewodztwoId":"wielkopolskie","powiat":"kościański","gmina":"Czempiń"}},{"type":"Feature","geometry":{"type":"Point","coordinates":[17.490048356013673,52.42657331381942]},"properties":{"id":5758,"name":"Czerniejewo","nazwa":"Czerniejewo","miasto":"Czerniejewo","type":"city","rodzaj":"miasto","wojewodztwo":"Wielkopolskie","wojewodztwoId":"wielkopolskie","powiat":"gnieźnieński","gmina":"Czerniejewo"}},{"type":"Feature","geometry":{"type":"Point","coordinates":[17.97644274531932,53.79511964308278]},"properties":{"id":5784,"name":"Czersk","nazwa":"Czersk","miasto":"Czersk","type":"city","rodzaj":"miasto","wojewodztwo":"Pomorskie","wojewodztwoId":"pomorskie","powiat":"chojnicki","gmina":"Czersk"}},{"type":"Feature","geometry":{"type":"Point","coordinates":[15.423387096414972,52.01302837720108]},"properties":{"id":5794,"name":"Czerwieńsk","nazwa":"Czerwieńsk","miasto":"Czerwieńsk","type":"city","rodzaj":"miasto","wojewodztwo":"Lubuskie","wojewodztwoId":"lubuskie","powiat":"zielonogórski","gmina":"Czerwieńsk"}},{"type":"Feature","geometry":{"type":"Point","coordinates":[18.663588545736,50.159001940156]},"properties":{"id":5796,"name":"Czerwionka-Leszczyny","nazwa":"Czerwionka-Leszczyny","miasto":"Czerwionka-Leszczyny","type":"city","rodzaj":"miasto","wojewodztwo":"Śląskie","wojewodztwoId":"slaskie","powiat":"rybnicki","gmina":"Czerwionka-Leszczyny"}},{"type":"Feature","geometry":{"type":"Point","coordinates":[20.31276559031385,52.393836055519195]},"properties":{"id":5800,"name":"Czerwińsk nad Wisłą","nazwa":"Czerwińsk nad Wisłą","miasto":"Czerwińsk nad Wisłą","type":"city","rodzaj":"miasto","wojewodztwo":"Mazowieckie","wojewodztwoId":"mazowieckie","powiat":"płoński","gmina":"Czerwińsk nad Wisłą"}},{"type":"Feature","geometry":{"type":"Point","coordinates":[22.316556874045695,52.79871524914063]},"properties":{"id":5933,"name":"Czyżew","nazwa":"Czyżew","miasto":"Czyżew","type":"city","rodzaj":"miasto","wojewodztwo":"Podlaskie","wojewodztwoId":"podlaskie","powiat":"wysokomazowiecki","gmina":"Czyżew"}},{"type":"Feature","geometry":{"type":"Point","coordinates":[19.127898744063,50.81193174471]},"properties":{"id":5972,"name":"Częstochowa","nazwa":"Częstochowa","miasto":"Częstochowa","type":"city","rodzaj":"miasto","wojewodztwo":"Śląskie","wojewodztwoId":"slaskie","powiat":"Częstochowa","gmina":"Częstochowa"}},{"type":"Feature","geometry":{"type":"Point","coordinates":[16.120916306014333,53.08849262172175]},"properties":{"id":5980,"name":"Człopa","nazwa":"Człopa","miasto":"Człopa","type":"city","rodzaj":"miasto","wojewodztwo":"Zachodniopomorskie","wojewodztwoId":"zachodniopomorskie","powiat":"wałecki","gmina":"Człopa"}},{"type":"Feature","geometry":{"type":"Point","coordinates":[17.35892318289916,53.667196859909815]},"properties":{"id":5983,"name":"Człuchów","nazwa":"Człuchów","miasto":"Człuchów","type":"city","rodzaj":"miasto","wojewodztwo":"Pomorskie","wojewodztwoId":"pomorskie","powiat":"człuchowski","gmina":"Człuchów"}},{"type":"Feature","geometry":{"type":"Point","coordinates":[20.80666667,50.80138889]},"properties":{"id":6008,"name":"Daleszyce","nazwa":"Daleszyce","miasto":"Daleszyce","type":"city","rodzaj":"miasto","wojewodztwo":"Świętokrzyskie","wojewodztwoId":"swietokrzyskie","powiat":"kielecki","gmina":"Daleszyce"}},{"type":"Feature","geometry":{"type":"Point","coordinates":[16.41051765263714,54.42096858794253]},"properties":{"id":6104,"name":"Darłowo","nazwa":"Darłowo","miasto":"Darłowo","type":"city","rodzaj":"miasto","wojewodztwo":"Zachodniopomorskie","wojewodztwoId":"zachodniopomorskie","powiat":"sławieński","gmina":"Darłowo"}},{"type":"Feature","geometry":{"type":"Point","coordinates":[17.23538473670451,53.53843121069123]},"properties":{"id":6139,"name":"Debrzno","nazwa":"Debrzno","miasto":"Debrzno","type":"city","rodzaj":"miasto","wojewodztwo":"Pomorskie","wojewodztwoId":"pomorskie","powiat":"człuchowski","gmina":"Debrzno"}},{"type":"Feature","geometry":{"type":"Point","coordinates":[20.092757512684194,49.88070865392998]},"properties":{"id":6193,"name":"Dobczyce","nazwa":"Dobczyce","miasto":"Dobczyce","type":"city","rodzaj":"miasto","wojewodztwo":"Małopolskie","wojewodztwoId":"malopolskie","powiat":"myślenicki","gmina":"Dobczyce"}},{"type":"Feature","geometry":{"type":"Point","coordinates":[15.753122255906158,52.970367571655665]},"properties":{"id":6198,"name":"Dobiegniew","nazwa":"Dobiegniew","miasto":"Dobiegniew","type":"city","rodzaj":"miasto","wojewodztwo":"Lubuskie","wojewodztwoId":"lubuskie","powiat":"strzelecko-drezdenecki","gmina":"Dobiegniew"}},{"type":"Feature","geometry":{"type":"Point","coordinates":[18.61522175613004,51.91599859874462]},"properties":{"id":6236,"name":"Dobra","nazwa":"Dobra","miasto":"Dobra","type":"city","rodzaj":"miasto","wojewodztwo":"Wielkopolskie","wojewodztwoId":"wielkopolskie","powiat":"turecki","gmina":"Dobra"}},{"type":"Feature","geometry":{"type":"Point","coordinates":[15.3072895382911,53.586185124041]},"properties":{"id":6244,"name":"Dobra","nazwa":"Dobra","miasto":"Dobra","type":"city","rodzaj":"miasto","wojewodztwo":"Zachodniopomorskie","wojewodztwoId":"zachodniopomorskie","powiat":"łobeski","gmina":"Dobra"}},{"type":"Feature","geometry":{"type":"Point","coordinates":[21.678884578583574,52.320935304159526]},"properties":{"id":6269,"name":"Dobre","nazwa":"Dobre","miasto":"Dobre","type":"city","rodzaj":"miasto","wojewodztwo":"Mazowieckie","wojewodztwoId":"mazowieckie","powiat":"miński","gmina":"Dobre"}},{"type":"Feature","geometry":{"type":"Point","coordinates":[20.395270424644615,53.98929194751333]},"properties":{"id":6272,"name":"Dobre Miasto","nazwa":"Dobre Miasto","miasto":"Dobre Miasto","type":"city","rodzaj":"miasto","wojewodztwo":"Warmińsko-Mazurskie","wojewodztwoId":"warminsko-mazurskie","powiat":"olsztyński","gmina":"Dobre Miasto"}},{"type":"Feature","geometry":{"type":"Point","coordinates":[18.443273374321,50.7285044656272]},"properties":{"id":6287,"name":"Dobrodzień","nazwa":"Dobrodzień","miasto":"Dobrodzień","type":"city","rodzaj":"miasto","wojewodztwo":"Opolskie","wojewodztwoId":"opolskie","powiat":"oleski","gmina":"Dobrodzień"}},{"type":"Feature","geometry":{"type":"Point","coordinates":[15.4294243310456,53.35744951005036]},"properties":{"id":6357,"name":"Dobrzany","nazwa":"Dobrzany","miasto":"Dobrzany","type":"city","rodzaj":"miasto","wojewodztwo":"Zachodniopomorskie","wojewodztwoId":"zachodniopomorskie","powiat":"stargardzki","gmina":"Dobrzany"}},{"type":"Feature","geometry":{"type":"Point","coordinates":[17.601111767656,51.863389631617]},"properties":{"id":6379,"name":"Dobrzyca","nazwa":"Dobrzyca","miasto":"Dobrzyca","type":"city","rodzaj":"miasto","wojewodztwo":"Wielkopolskie","wojewodztwoId":"wielkopolskie","powiat":"pleszewski","gmina":"Dobrzyca"}},{"type":"Feature","geometry":{"type":"Point","coordinates":[19.3226812560472,52.6382516392913]},"properties":{"id":6399,"name":"Dobrzyń nad Wisłą","nazwa":"Dobrzyń nad Wisłą","miasto":"Dobrzyń nad Wisłą","type":"city","rodzaj":"miasto","wojewodztwo":"Kujawsko-Pomorskie","wojewodztwoId":"kujawsko-pomorskie","powiat":"lipnowski","gmina":"Dobrzyń nad Wisłą"}},{"type":"Feature","geometry":{"type":"Point","coordinates":[17.066037551706074,51.98676512212312]},"properties":{"id":6443,"name":"Dolsk","nazwa":"Dolsk","miasto":"Dolsk","type":"city","rodzaj":"miasto","wojewodztwo":"Wielkopolskie","wojewodztwoId":"wielkopolskie","powiat":"śremski","gmina":"Dolsk"}},{"type":"Feature","geometry":{"type":"Point","coordinates":[15.7561880440276,53.2184735034578]},"properties":{"id":6588,"name":"Drawno","nazwa":"Drawno","miasto":"Drawno","type":"city","rodzaj":"miasto","wojewodztwo":"Zachodniopomorskie","wojewodztwoId":"zachodniopomorskie","powiat":"choszczeński","gmina":"Drawno"}},{"type":"Feature","geometry":{"type":"Point","coordinates":[15.810241619184382,53.53088320698426]},"properties":{"id":6591,"name":"Drawsko Pomorskie","nazwa":"Drawsko Pomorskie","miasto":"Drawsko Pomorskie","type":"city","rodzaj":"miasto","wojewodztwo":"Zachodniopomorskie","wojewodztwoId":"zachodniopomorskie","powiat":"drawski","gmina":"Drawsko Pomorskie"}},{"type":"Feature","geometry":{"type":"Point","coordinates":[15.831162158610963,52.83599076096964]},"properties":{"id":6604,"name":"Drezdenko","nazwa":"Drezdenko","miasto":"Drezdenko","type":"city","rodzaj":"miasto","wojewodztwo":"Lubuskie","wojewodztwoId":"lubuskie","powiat":"strzelecko-drezdenecki","gmina":"Drezdenko"}},{"type":"Feature","geometry":{"type":"Point","coordinates":[19.995481509974702,52.73720177926863]},"properties":{"id":6609,"name":"Drobin","nazwa":"Drobin","miasto":"Drobin","type":"city","rodzaj":"miasto","wojewodztwo":"Mazowieckie","wojewodztwoId":"mazowieckie","powiat":"płocki","gmina":"Drobin"}},{"type":"Feature","geometry":{"type":"Point","coordinates":[22.65880564352666,52.39864764840986]},"properties":{"id":6639,"name":"Drohiczyn","nazwa":"Drohiczyn","miasto":"Drohiczyn","type":"city","rodzaj":"miasto","wojewodztwo":"Podlaskie","wojewodztwoId":"podlaskie","powiat":"siemiatycki","gmina":"Drohiczyn"}},{"type":"Feature","geometry":{"type":"Point","coordinates":[20.4772519437505,51.4505281130297]},"properties":{"id":6741,"name":"Drzewica","nazwa":"Drzewica","miasto":"Drzewica","type":"city","rodzaj":"miasto","wojewodztwo":"Łódzkie","wojewodztwoId":"lodzkie","powiat":"opoczyński","gmina":"Drzewica"}},{"type":"Feature","geometry":{"type":"Point","coordinates":[22.392406274729,49.824962066189]},"properties":{"id":6803,"name":"Dubiecko","nazwa":"Dubiecko","miasto":"Dubiecko","type":"city","rodzaj":"miasto","wojewodztwo":"Podkarpackie","wojewodztwoId":"podkarpackie","powiat":"przemyski","gmina":"Dubiecko"}},{"type":"Feature","geometry":{"type":"Point","coordinates":[21.6843333960515,49.5551099774814]},"properties":{"id":6844,"name":"Dukla","nazwa":"Dukla","miasto":"Dukla","type":"city","rodzaj":"miasto","wojewodztwo":"Podkarpackie","wojewodztwoId":"podkarpackie","powiat":"krośnieński","gmina":"Dukla"}},{"type":"Feature","geometry":{"type":"Point","coordinates":[16.3899711229873,50.4040529611914]},"properties":{"id":6885,"name":"Duszniki-Zdrój","nazwa":"Duszniki-Zdrój","miasto":"Duszniki-Zdrój","type":"city","rodzaj":"miasto","wojewodztwo":"Dolnośląskie","wojewodztwoId":"dolnoslaskie","powiat":"kłodzki","gmina":"Duszniki-Zdrój"}},{"type":"Feature","geometry":{"type":"Point","coordinates":[22.228015886634,49.8183646206316]},"properties":{"id":6962,"name":"Dynów","nazwa":"Dynów","miasto":"Dynów","type":"city","rodzaj":"miasto","wojewodztwo":"Podkarpackie","wojewodztwoId":"podkarpackie","powiat":"rzeszowski","gmina":"Dynów"}},{"type":"Feature","geometry":{"type":"Point","coordinates":[20.1824608279049,53.2386068764021]},"properties":{"id":7005,"name":"Działdowo","nazwa":"Działdowo","miasto":"Działdowo","type":"city","rodzaj":"miasto","wojewodztwo":"Warmińsko-Mazurskie","wojewodztwoId":"warminsko-mazurskie","powiat":"działdowski","gmina":"Działdowo"}},{"type":"Feature","geometry":{"type":"Point","coordinates":[20.35166746512099,50.36563223675428]},"properties":{"id":7012,"name":"Działoszyce","nazwa":"Działoszyce","miasto":"Działoszyce","type":"city","rodzaj":"miasto","wojewodztwo":"Świętokrzyskie","wojewodztwoId":"swietokrzyskie","powiat":"pińczowski","gmina":"Działoszyce"}},{"type":"Feature","geometry":{"type":"Point","coordinates":[18.865183117094055,51.116906183381886]},"properties":{"id":7013,"name":"Działoszyn","nazwa":"Działoszyn","miasto":"Działoszyn","type":"city","rodzaj":"miasto","wojewodztwo":"Łódzkie","wojewodztwoId":"lodzkie","powiat":"pajęczański","gmina":"Działoszyn"}},{"type":"Feature","geometry":{"type":"Point","coordinates":[19.346797948621116,53.922411858686786]},"properties":{"id":7098,"name":"Dzierzgoń","nazwa":"Dzierzgoń","miasto":"Dzierzgoń","type":"city","rodzaj":"miasto","wojewodztwo":"Pomorskie","wojewodztwoId":"pomorskie","powiat":"sztumski","gmina":"Dzierzgoń"}},{"type":"Feature","geometry":{"type":"Point","coordinates":[16.64880137746754,50.72907650470233]},"properties":{"id":7140,"name":"Dzierżoniów","nazwa":"Dzierżoniów","miasto":"Dzierżoniów","type":"city","rodzaj":"miasto","wojewodztwo":"Dolnośląskie","wojewodztwoId":"dolnoslaskie","powiat":"dzierżoniowski","gmina":"Dzierżoniów"}},{"type":"Feature","geometry":{"type":"Point","coordinates":[14.753300846442162,54.02478272906139]},"properties":{"id":7225,"name":"Dziwnów","nazwa":"Dziwnów","miasto":"Dziwnów","type":"city","rodzaj":"miasto","wojewodztwo":"Zachodniopomorskie","wojewodztwoId":"zachodniopomorskie","powiat":"kamieński","gmina":"Dziwnów"}},{"type":"Feature","geometry":{"type":"Point","coordinates":[18.822304374230946,52.08836094106455]},"properties":{"id":7273,"name":"Dąbie","nazwa":"Dąbie","miasto":"Dąbie","type":"city","rodzaj":"miasto","wojewodztwo":"Wielkopolskie","wojewodztwoId":"wielkopolskie","powiat":"kolski","gmina":"Dąbie"}},{"type":"Feature","geometry":{"type":"Point","coordinates":[23.34799797839618,53.65363464525408]},"properties":{"id":7408,"name":"Dąbrowa Białostocka","nazwa":"Dąbrowa Białostocka","miasto":"Dąbrowa Białostocka","type":"city","rodzaj":"miasto","wojewodztwo":"Podlaskie","wojewodztwoId":"podlaskie","powiat":"sokólski","gmina":"Dąbrowa Białostocka"}},{"type":"Feature","geometry":{"type":"Point","coordinates":[19.205379370514,50.326053934198]},"properties":{"id":7423,"name":"Dąbrowa Górnicza","nazwa":"Dąbrowa Górnicza","miasto":"Dąbrowa Górnicza","type":"city","rodzaj":"miasto","wojewodztwo":"Śląskie","wojewodztwoId":"slaskie","powiat":"Dąbrowa Górnicza","gmina":"Dąbrowa Górnicza"}},{"type":"Feature","geometry":{"type":"Point","coordinates":[20.9864359397439,50.1744884522989]},"properties":{"id":7437,"name":"Dąbrowa Tarnowska","nazwa":"Dąbrowa Tarnowska","miasto":"Dąbrowa Tarnowska","type":"city","rodzaj":"miasto","wojewodztwo":"Małopolskie","wojewodztwoId":"malopolskie","powiat":"dąbrowski","gmina":"Dąbrowa Tarnowska"}},{"type":"Feature","geometry":{"type":"Point","coordinates":[19.0847256657421,52.315425639885994]},"properties":{"id":7485,"name":"Dąbrowice","nazwa":"Dąbrowice","miasto":"Dąbrowice","type":"city","rodzaj":"miasto","wojewodztwo":"Łódzkie","wojewodztwoId":"lodzkie","powiat":"kutnowski","gmina":"Dąbrowice"}},{"type":"Feature","geometry":{"type":"Point","coordinates":[21.4068479672282,50.0509255093783]},"properties":{"id":7662,"name":"Dębica","nazwa":"Dębica","miasto":"Dębica","type":"city","rodzaj":"miasto","wojewodztwo":"Podkarpackie","wojewodztwoId":"podkarpackie","powiat":"dębicki","gmina":"Dębica"}},{"type":"Feature","geometry":{"type":"Point","coordinates":[21.842786425722373,51.56145763121326]},"properties":{"id":7733,"name":"Dęblin","nazwa":"Dęblin","miasto":"Dęblin","type":"city","rodzaj":"miasto","wojewodztwo":"Lubelskie","wojewodztwoId":"lubelskie","powiat":"rycki","gmina":"Dęblin"}},{"type":"Feature","geometry":{"type":"Point","coordinates":[14.7022168932485,52.7355698825749]},"properties":{"id":7767,"name":"Dębno","nazwa":"Dębno","miasto":"Dębno","type":"city","rodzaj":"miasto","wojewodztwo":"Zachodniopomorskie","wojewodztwoId":"zachodniopomorskie","powiat":"myśliborski","gmina":"Dębno"}},{"type":"Feature","geometry":{"type":"Point","coordinates":[19.4097665358274,54.1614346367306]},"properties":{"id":7996,"name":"Elbląg","nazwa":"Elbląg","miasto":"Elbląg","type":"city","rodzaj":"miasto","wojewodztwo":"Warmińsko-Mazurskie","wojewodztwoId":"warminsko-mazurskie","powiat":"Elbląg","gmina":"Elbląg"}},{"type":"Feature","geometry":{"type":"Point","coordinates":[22.3526646381949,53.8228566174812]},"properties":{"id":8076,"name":"Ełk","nazwa":"Ełk","miasto":"Ełk","type":"city","rodzaj":"miasto","wojewodztwo":"Warmińsko-Mazurskie","wojewodztwoId":"warminsko-mazurskie","powiat":"ełcki","gmina":"Ełk"}},{"type":"Feature","geometry":{"type":"Point","coordinates":[22.670673570604105,50.67156021865265]},"properties":{"id":8243,"name":"Frampol","nazwa":"Frampol","miasto":"Frampol","type":"city","rodzaj":"miasto","wojewodztwo":"Lubelskie","wojewodztwoId":"lubelskie","powiat":"biłgorajski","gmina":"Frampol"}},{"type":"Feature","geometry":{"type":"Point","coordinates":[19.6819539643211,54.3570067022385]},"properties":{"id":8282,"name":"Frombork","nazwa":"Frombork","miasto":"Frombork","type":"city","rodzaj":"miasto","wojewodztwo":"Warmińsko-Mazurskie","wojewodztwoId":"warminsko-mazurskie","powiat":"braniewski","gmina":"Frombork"}},{"type":"Feature","geometry":{"type":"Point","coordinates":[21.614920889558586,51.8971714010405]},"properties":{"id":8498,"name":"Garwolin","nazwa":"Garwolin","miasto":"Garwolin","type":"city","rodzaj":"miasto","wojewodztwo":"Mazowieckie","wojewodztwoId":"mazowieckie","powiat":"garwoliński","gmina":"Garwolin"}},{"type":"Feature","geometry":{"type":"Point","coordinates":[18.646338873384728,54.351887749048416]},"properties":{"id":8609,"name":"Gdańsk","nazwa":"Gdańsk","miasto":"Gdańsk","type":"city","rodzaj":"miasto","wojewodztwo":"Pomorskie","wojewodztwoId":"pomorskie","powiat":"Gdańsk","gmina":"Gdańsk"}},{"type":"Feature","geometry":{"type":"Point","coordinates":[18.538787174508503,54.517693409819614]},"properties":{"id":8612,"name":"Gdynia","nazwa":"Gdynia","miasto":"Gdynia","type":"city","rodzaj":"miasto","wojewodztwo":"Pomorskie","wojewodztwoId":"pomorskie","powiat":"Gdynia","gmina":"Gdynia"}},{"type":"Feature","geometry":{"type":"Point","coordinates":[20.476370426409048,51.39973690205672]},"properties":{"id":8640,"name":"Gielniów","nazwa":"Gielniów","miasto":"Gielniów","type":"city","rodzaj":"miasto","wojewodztwo":"Mazowieckie","wojewodztwoId":"mazowieckie","powiat":"przysuski","gmina":"Gielniów"}},{"type":"Feature","geometry":{"type":"Point","coordinates":[21.771539346359,54.0398885385193]},"properties":{"id":8716,"name":"Giżycko","nazwa":"Giżycko","miasto":"Giżycko","type":"city","rodzaj":"miasto","wojewodztwo":"Warmińsko-Mazurskie","wojewodztwoId":"warminsko-mazurskie","powiat":"giżycki","gmina":"Giżycko"}},{"type":"Feature","geometry":{"type":"Point","coordinates":[20.291255249908254,52.819362623723556]},"properties":{"id":8813,"name":"Glinojeck","nazwa":"Glinojeck","miasto":"Glinojeck","type":"city","rodzaj":"miasto","wojewodztwo":"Mazowieckie","wojewodztwoId":"mazowieckie","powiat":"ciechanowski","gmina":"Glinojeck"}},{"type":"Feature","geometry":{"type":"Point","coordinates":[18.667138485928,50.292088704948]},"properties":{"id":8821,"name":"Gliwice","nazwa":"Gliwice","miasto":"Gliwice","type":"city","rodzaj":"miasto","wojewodztwo":"Śląskie","wojewodztwoId":"slaskie","powiat":"Gliwice","gmina":"Gliwice"}},{"type":"Feature","geometry":{"type":"Point","coordinates":[18.8223250709434,53.83540492462097]},"properties":{"id":8854,"name":"Gniew","nazwa":"Gniew","miasto":"Gniew","type":"city","rodzaj":"miasto","wojewodztwo":"Pomorskie","wojewodztwoId":"pomorskie","powiat":"tczewski","gmina":"Gniew"}},{"type":"Feature","geometry":{"type":"Point","coordinates":[18.4085680767971,52.8927876330246]},"properties":{"id":8864,"name":"Gniewkowo","nazwa":"Gniewkowo","miasto":"Gniewkowo","type":"city","rodzaj":"miasto","wojewodztwo":"Kujawsko-Pomorskie","wojewodztwoId":"kujawsko-pomorskie","powiat":"inowrocławski","gmina":"Gniewkowo"}},{"type":"Feature","geometry":{"type":"Point","coordinates":[17.599724208090606,52.53468548054147]},"properties":{"id":8876,"name":"Gniezno","nazwa":"Gniezno","miasto":"Gniezno","type":"city","rodzaj":"miasto","wojewodztwo":"Wielkopolskie","wojewodztwoId":"wielkopolskie","powiat":"gnieźnieński","gmina":"Gniezno"}},{"type":"Feature","geometry":{"type":"Point","coordinates":[18.0222063045148,50.4915435262242]},"properties":{"id":8979,"name":"Gogolin","nazwa":"Gogolin","miasto":"Gogolin","type":"city","rodzaj":"miasto","wojewodztwo":"Opolskie","wojewodztwoId":"opolskie","powiat":"krapkowicki","gmina":"Gogolin"}},{"type":"Feature","geometry":{"type":"Point","coordinates":[14.978486677463893,53.82419109258229]},"properties":{"id":9027,"name":"Golczewo","nazwa":"Golczewo","miasto":"Golczewo","type":"city","rodzaj":"miasto","wojewodztwo":"Zachodniopomorskie","wojewodztwoId":"zachodniopomorskie","powiat":"kamieński","gmina":"Golczewo"}},{"type":"Feature","geometry":{"type":"Point","coordinates":[14.829622599978,53.5631547875587]},"properties":{"id":9041,"name":"Goleniów","nazwa":"Goleniów","miasto":"Goleniów","type":"city","rodzaj":"miasto","wojewodztwo":"Zachodniopomorskie","wojewodztwoId":"zachodniopomorskie","powiat":"goleniowski","gmina":"Goleniów"}},{"type":"Feature","geometry":{"type":"Point","coordinates":[18.094952126195352,52.24434686669963]},"properties":{"id":9062,"name":"Golina","nazwa":"Golina","miasto":"Golina","type":"city","rodzaj":"miasto","wojewodztwo":"Wielkopolskie","wojewodztwoId":"wielkopolskie","powiat":"koniński","gmina":"Golina"}},{"type":"Feature","geometry":{"type":"Point","coordinates":[19.053787050131692,53.10865105179782]},"properties":{"id":9079,"name":"Golub-Dobrzyń","nazwa":"Golub-Dobrzyń","miasto":"Golub-Dobrzyń","type":"city","rodzaj":"miasto","wojewodztwo":"Kujawsko-Pomorskie","wojewodztwoId":"kujawsko-pomorskie","powiat":"golubsko-dobrzyński","gmina":"Golub-Dobrzyń"}},{"type":"Feature","geometry":{"type":"Point","coordinates":[22.734650693546843,53.48805429154586]},"properties":{"id":9100,"name":"Goniądz","nazwa":"Goniądz","miasto":"Goniądz","type":"city","rodzaj":"miasto","wojewodztwo":"Podlaskie","wojewodztwoId":"podlaskie","powiat":"moniecki","gmina":"Goniądz"}},{"type":"Feature","geometry":{"type":"Point","coordinates":[22.667115362625015,50.721284137965185]},"properties":{"id":9106,"name":"Goraj","nazwa":"Goraj","miasto":"Goraj","type":"city","rodzaj":"miasto","wojewodztwo":"Lubelskie","wojewodztwoId":"lubelskie","powiat":"biłgorajski","gmina":"Goraj"}},{"type":"Feature","geometry":{"type":"Point","coordinates":[21.159828439018764,49.65485180786568]},"properties":{"id":9130,"name":"Gorlice","nazwa":"Gorlice","miasto":"Gorlice","type":"city","rodzaj":"miasto","wojewodztwo":"Małopolskie","wojewodztwoId":"malopolskie","powiat":"gorlicki","gmina":"Gorlice"}},{"type":"Feature","geometry":{"type":"Point","coordinates":[15.238292867141,52.730959831605]},"properties":{"id":9214,"name":"Gorzów Wielkopolski","nazwa":"Gorzów Wielkopolski","miasto":"Gorzów Wielkopolski","type":"city","rodzaj":"miasto","wojewodztwo":"Lubuskie","wojewodztwoId":"lubuskie","powiat":"Gorzów Wielkopolski","gmina":"Gorzów Wielkopolski"}},{"type":"Feature","geometry":{"type":"Point","coordinates":[18.422329010081,51.0281584565242]},"properties":{"id":9215,"name":"Gorzów Śląski","nazwa":"Gorzów Śląski","miasto":"Gorzów Śląski","type":"city","rodzaj":"miasto","wojewodztwo":"Opolskie","wojewodztwoId":"opolskie","powiat":"oleski","gmina":"Gorzów Śląski"}},{"type":"Feature","geometry":{"type":"Point","coordinates":[19.461928847508418,52.42921714235579]},"properties":{"id":9259,"name":"Gostynin","nazwa":"Gostynin","miasto":"Gostynin","type":"city","rodzaj":"miasto","wojewodztwo":"Mazowieckie","wojewodztwoId":"mazowieckie","powiat":"gostyniński","gmina":"Gostynin"}},{"type":"Feature","geometry":{"type":"Point","coordinates":[17.0123124207227,51.8820669251985]},"properties":{"id":9260,"name":"Gostyń","nazwa":"Gostyń","miasto":"Gostyń","type":"city","rodzaj":"miasto","wojewodztwo":"Wielkopolskie","wojewodztwoId":"wielkopolskie","powiat":"gostyński","gmina":"Gostyń"}},{"type":"Feature","geometry":{"type":"Point","coordinates":[20.438017395239765,51.278394078861595]},"properties":{"id":9302,"name":"Gowarczów","nazwa":"Gowarczów","miasto":"Gowarczów","type":"city","rodzaj":"miasto","wojewodztwo":"Świętokrzyskie","wojewodztwoId":"swietokrzyskie","powiat":"konecki","gmina":"Gowarczów"}},{"type":"Feature","geometry":{"type":"Point","coordinates":[15.09660301570796,51.43801697519476]},"properties":{"id":9322,"name":"Gozdnica","nazwa":"Gozdnica","miasto":"Gozdnica","type":"city","rodzaj":"miasto","wojewodztwo":"Lubuskie","wojewodztwoId":"lubuskie","powiat":"żagański","gmina":"Gozdnica"}},{"type":"Feature","geometry":{"type":"Point","coordinates":[17.299682263334212,52.943189521999166]},"properties":{"id":9354,"name":"Gołańcz","nazwa":"Gołańcz","miasto":"Gołańcz","type":"city","rodzaj":"miasto","wojewodztwo":"Wielkopolskie","wojewodztwoId":"wielkopolskie","powiat":"wągrowiecki","gmina":"Gołańcz"}},{"type":"Feature","geometry":{"type":"Point","coordinates":[22.30350562673833,54.30701761883763]},"properties":{"id":9358,"name":"Gołdap","nazwa":"Gołdap","miasto":"Gołdap","type":"city","rodzaj":"miasto","wojewodztwo":"Warmińsko-Mazurskie","wojewodztwoId":"warminsko-mazurskie","powiat":"gołdapski","gmina":"Gołdap"}},{"type":"Feature","geometry":{"type":"Point","coordinates":[15.6526421461868,54.0513639825332]},"properties":{"id":9460,"name":"Gościno","nazwa":"Gościno","miasto":"Gościno","type":"city","rodzaj":"miasto","wojewodztwo":"Zachodniopomorskie","wojewodztwoId":"zachodniopomorskie","powiat":"kołobrzeski","gmina":"Gościno"}},{"type":"Feature","geometry":{"type":"Point","coordinates":[19.01315640779854,52.127799822168015]},"properties":{"id":9682,"name":"Grabów","nazwa":"Grabów","miasto":"Grabów","type":"city","rodzaj":"miasto","wojewodztwo":"Łódzkie","wojewodztwoId":"lodzkie","powiat":"łęczycki","gmina":"Grabów"}},{"type":"Feature","geometry":{"type":"Point","coordinates":[18.11446733954282,51.50826301822834]},"properties":{"id":9689,"name":"Grabów nad Prosną","nazwa":"Grabów nad Prosną","miasto":"Grabów nad Prosną","type":"city","rodzaj":"miasto","wojewodztwo":"Wielkopolskie","wojewodztwoId":"wielkopolskie","powiat":"ostrzeszowski","gmina":"Grabów nad Prosną"}},{"type":"Feature","geometry":{"type":"Point","coordinates":[22.454877129026,53.646999137679]},"properties":{"id":9735,"name":"Grajewo","nazwa":"Grajewo","miasto":"Grajewo","type":"city","rodzaj":"miasto","wojewodztwo":"Podlaskie","wojewodztwoId":"podlaskie","powiat":"grajewski","gmina":"Grajewo"}},{"type":"Feature","geometry":{"type":"Point","coordinates":[17.3851855128068,50.6984978136585]},"properties":{"id":9820,"name":"Grodków","nazwa":"Grodków","miasto":"Grodków","type":"city","rodzaj":"miasto","wojewodztwo":"Opolskie","wojewodztwoId":"opolskie","powiat":"brzeski","gmina":"Grodków"}},{"type":"Feature","geometry":{"type":"Point","coordinates":[20.625952013312855,52.10363835160387]},"properties":{"id":9857,"name":"Grodzisk Mazowiecki","nazwa":"Grodzisk Mazowiecki","miasto":"Grodzisk Mazowiecki","type":"city","rodzaj":"miasto","wojewodztwo":"Mazowieckie","wojewodztwoId":"mazowieckie","powiat":"grodziski","gmina":"Grodzisk Mazowiecki"}},{"type":"Feature","geometry":{"type":"Point","coordinates":[16.36645164201106,52.22549458825928]},"properties":{"id":9859,"name":"Grodzisk Wielkopolski","nazwa":"Grodzisk Wielkopolski","miasto":"Grodzisk Wielkopolski","type":"city","rodzaj":"miasto","wojewodztwo":"Wielkopolskie","wojewodztwoId":"wielkopolskie","powiat":"grodziski","gmina":"Grodzisk Wielkopolski"}},{"type":"Feature","geometry":{"type":"Point","coordinates":[18.7529578044802,53.4880293129976]},"properties":{"id":9981,"name":"Grudziądz","nazwa":"Grudziądz","miasto":"Grudziądz","type":"city","rodzaj":"miasto","wojewodztwo":"Kujawsko-Pomorskie","wojewodztwoId":"kujawsko-pomorskie","powiat":"Grudziądz","gmina":"Grudziądz"}},{"type":"Feature","geometry":{"type":"Point","coordinates":[20.947717822681017,49.62427737568878]},"properties":{"id":10021,"name":"Grybów","nazwa":"Grybów","miasto":"Grybów","type":"city","rodzaj":"miasto","wojewodztwo":"Małopolskie","wojewodztwoId":"malopolskie","powiat":"nowosądecki","gmina":"Grybów"}},{"type":"Feature","geometry":{"type":"Point","coordinates":[15.198139543832502,53.91511505591178]},"properties":{"id":10022,"name":"Gryfice","nazwa":"Gryfice","miasto":"Gryfice","type":"city","rodzaj":"miasto","wojewodztwo":"Zachodniopomorskie","wojewodztwoId":"zachodniopomorskie","powiat":"gryficki","gmina":"Gryfice"}},{"type":"Feature","geometry":{"type":"Point","coordinates":[14.48944444,53.25666667]},"properties":{"id":10023,"name":"Gryfino","nazwa":"Gryfino","miasto":"Gryfino","type":"city","rodzaj":"miasto","wojewodztwo":"Zachodniopomorskie","wojewodztwoId":"zachodniopomorskie","powiat":"gryfiński","gmina":"Gryfino"}},{"type":"Feature","geometry":{"type":"Point","coordinates":[15.41472222,51.02805556]},"properties":{"id":10024,"name":"Gryfów Śląski","nazwa":"Gryfów Śląski","miasto":"Gryfów Śląski","type":"city","rodzaj":"miasto","wojewodztwo":"Dolnośląskie","wojewodztwoId":"dolnoslaskie","powiat":"lwówecki","gmina":"Gryfów Śląski"}},{"type":"Feature","geometry":{"type":"Point","coordinates":[20.86666174760676,51.86550723948305]},"properties":{"id":10172,"name":"Grójec","nazwa":"Grójec","miasto":"Grójec","type":"city","rodzaj":"miasto","wojewodztwo":"Mazowieckie","wojewodztwoId":"mazowieckie","powiat":"grójecki","gmina":"Grójec"}},{"type":"Feature","geometry":{"type":"Point","coordinates":[14.726981002016522,51.954906773244225]},"properties":{"id":10262,"name":"Gubin","nazwa":"Gubin","miasto":"Gubin","type":"city","rodzaj":"miasto","wojewodztwo":"Lubuskie","wojewodztwoId":"lubuskie","powiat":"krośnieński","gmina":"Gubin"}},{"type":"Feature","geometry":{"type":"Point","coordinates":[16.5390462904571,51.667975479252]},"properties":{"id":10425,"name":"Góra","nazwa":"Góra","miasto":"Góra","type":"city","rodzaj":"miasto","wojewodztwo":"Dolnośląskie","wojewodztwoId":"dolnoslaskie","powiat":"górowski","gmina":"Góra"}},{"type":"Feature","geometry":{"type":"Point","coordinates":[21.215957483994497,51.98171868595832]},"properties":{"id":10444,"name":"Góra Kalwaria","nazwa":"Góra Kalwaria","miasto":"Góra Kalwaria","type":"city","rodzaj":"miasto","wojewodztwo":"Mazowieckie","wojewodztwoId":"mazowieckie","powiat":"piaseczyński","gmina":"Góra Kalwaria"}},{"type":"Feature","geometry":{"type":"Point","coordinates":[20.4909167246223,54.2878496866761]},"properties":{"id":10581,"name":"Górowo Iławeckie","nazwa":"Górowo Iławeckie","miasto":"Górowo Iławeckie","type":"city","rodzaj":"miasto","wojewodztwo":"Warmińsko-Mazurskie","wojewodztwoId":"warminsko-mazurskie","powiat":"bartoszycki","gmina":"Górowo Iławeckie"}},{"type":"Feature","geometry":{"type":"Point","coordinates":[19.6434811460631,53.1976537251278]},"properties":{"id":10638,"name":"Górzno","nazwa":"Górzno","miasto":"Górzno","type":"city","rodzaj":"miasto","wojewodztwo":"Kujawsko-Pomorskie","wojewodztwoId":"kujawsko-pomorskie","powiat":"brodnicki","gmina":"Górzno"}},{"type":"Feature","geometry":{"type":"Point","coordinates":[19.732804678816088,52.39898922445295]},"properties":{"id":10660,"name":"Gąbin","nazwa":"Gąbin","miasto":"Gąbin","type":"city","rodzaj":"miasto","wojewodztwo":"Mazowieckie","wojewodztwoId":"mazowieckie","powiat":"płocki","gmina":"Gąbin"}},{"type":"Feature","geometry":{"type":"Point","coordinates":[17.75637523740218,52.76837000856195]},"properties":{"id":10679,"name":"Gąsawa","nazwa":"Gąsawa","miasto":"Gąsawa","type":"city","rodzaj":"miasto","wojewodztwo":"Kujawsko-Pomorskie","wojewodztwoId":"kujawsko-pomorskie","powiat":"żniński","gmina":"Gąsawa"}},{"type":"Feature","geometry":{"type":"Point","coordinates":[16.0797429443943,51.664640102436]},"properties":{"id":10806,"name":"Głogów","nazwa":"Głogów","miasto":"Głogów","type":"city","rodzaj":"miasto","wojewodztwo":"Dolnośląskie","wojewodztwoId":"dolnoslaskie","powiat":"głogowski","gmina":"Głogów"}},{"type":"Feature","geometry":{"type":"Point","coordinates":[21.9601995674975,50.1510972120773]},"properties":{"id":10807,"name":"Głogów Małopolski","nazwa":"Głogów Małopolski","miasto":"Głogów Małopolski","type":"city","rodzaj":"miasto","wojewodztwo":"Podkarpackie","wojewodztwoId":"podkarpackie","powiat":"rzeszowski","gmina":"Głogów Małopolski"}},{"type":"Feature","geometry":{"type":"Point","coordinates":[17.8644530893904,50.3534443283842]},"properties":{"id":10808,"name":"Głogówek","nazwa":"Głogówek","miasto":"Głogówek","type":"city","rodzaj":"miasto","wojewodztwo":"Opolskie","wojewodztwoId":"opolskie","powiat":"prudnicki","gmina":"Głogówek"}},{"type":"Feature","geometry":{"type":"Point","coordinates":[21.317773258645136,51.623189210193516]},"properties":{"id":10820,"name":"Głowaczów","nazwa":"Głowaczów","miasto":"Głowaczów","type":"city","rodzaj":"miasto","wojewodztwo":"Mazowieckie","wojewodztwoId":"mazowieckie","powiat":"kozienicki","gmina":"Głowaczów"}},{"type":"Feature","geometry":{"type":"Point","coordinates":[19.7138955472456,51.9677684662902]},"properties":{"id":10824,"name":"Głowno","nazwa":"Głowno","miasto":"Głowno","type":"city","rodzaj":"miasto","wojewodztwo":"Łódzkie","wojewodztwoId":"lodzkie","powiat":"zgierski","gmina":"Głowno"}},{"type":"Feature","geometry":{"type":"Point","coordinates":[17.8303280686985,50.200114410905]},"properties":{"id":10827,"name":"Głubczyce","nazwa":"Głubczyce","miasto":"Głubczyce","type":"city","rodzaj":"miasto","wojewodztwo":"Opolskie","wojewodztwoId":"opolskie","powiat":"głubczycki","gmina":"Głubczyce"}},{"type":"Feature","geometry":{"type":"Point","coordinates":[17.383463936925,50.3151200979908]},"properties":{"id":10839,"name":"Głuchołazy","nazwa":"Głuchołazy","miasto":"Głuchołazy","type":"city","rodzaj":"miasto","wojewodztwo":"Opolskie","wojewodztwoId":"opolskie","powiat":"nyski","gmina":"Głuchołazy"}},{"type":"Feature","geometry":{"type":"Point","coordinates":[16.3717331330026,50.6874502953383]},"properties":{"id":10872,"name":"Głuszyca","nazwa":"Głuszyca","miasto":"Głuszyca","type":"city","rodzaj":"miasto","wojewodztwo":"Dolnośląskie","wojewodztwoId":"dolnoslaskie","powiat":"wałbrzyski","gmina":"Głuszyca"}},{"type":"Feature","geometry":{"type":"Point","coordinates":[23.583143339210434,52.74310243107429]},"properties":{"id":10946,"name":"Hajnówka","nazwa":"Hajnówka","miasto":"Hajnówka","type":"city","rodzaj":"miasto","wojewodztwo":"Podlaskie","wojewodztwoId":"podlaskie","powiat":"hajnowski","gmina":"Hajnówka"}},{"type":"Feature","geometry":{"type":"Point","coordinates":[21.359734713580504,52.224218337592276]},"properties":{"id":10952,"name":"Halinów","nazwa":"Halinów","miasto":"Halinów","type":"city","rodzaj":"miasto","wojewodztwo":"Mazowieckie","wojewodztwoId":"mazowieckie","powiat":"miński","gmina":"Halinów"}},{"type":"Feature","geometry":{"type":"Point","coordinates":[18.802641934360782,54.60529244217193]},"properties":{"id":10999,"name":"Hel","nazwa":"Hel","miasto":"Hel","type":"city","rodzaj":"miasto","wojewodztwo":"Pomorskie","wojewodztwoId":"pomorskie","powiat":"pucki","gmina":"Hel"}},{"type":"Feature","geometry":{"type":"Point","coordinates":[23.8897539034245,50.8050607763801]},"properties":{"id":11190,"name":"Hrubieszów","nazwa":"Hrubieszów","miasto":"Hrubieszów","type":"city","rodzaj":"miasto","wojewodztwo":"Lubelskie","wojewodztwoId":"lubelskie","powiat":"hrubieszowski","gmina":"Hrubieszów"}},{"type":"Feature","geometry":{"type":"Point","coordinates":[19.1857368960845,50.146226918448]},"properties":{"id":11428,"name":"Imielin","nazwa":"Imielin","miasto":"Imielin","type":"city","rodzaj":"miasto","wojewodztwo":"Śląskie","wojewodztwoId":"slaskie","powiat":"bieruńsko-lędziński","gmina":"Imielin"}},{"type":"Feature","geometry":{"type":"Point","coordinates":[18.2615811095953,52.7964589902312]},"properties":{"id":11444,"name":"Inowrocław","nazwa":"Inowrocław","miasto":"Inowrocław","type":"city","rodzaj":"miasto","wojewodztwo":"Kujawsko-Pomorskie","wojewodztwoId":"kujawsko-pomorskie","powiat":"inowrocławski","gmina":"Inowrocław"}},{"type":"Feature","geometry":{"type":"Point","coordinates":[20.223208389158454,51.525725059665646]},"properties":{"id":11445,"name":"Inowłódz","nazwa":"Inowłódz","miasto":"Inowłódz","type":"city","rodzaj":"miasto","wojewodztwo":"Łódzkie","wojewodztwoId":"lodzkie","powiat":"tomaszowski","gmina":"Inowłódz"}},{"type":"Feature","geometry":{"type":"Point","coordinates":[21.281054362500544,50.73153117276509]},"properties":{"id":11460,"name":"Iwaniska","nazwa":"Iwaniska","miasto":"Iwaniska","type":"city","rodzaj":"miasto","wojewodztwo":"Świętokrzyskie","wojewodztwoId":"swietokrzyskie","powiat":"opatowski","gmina":"Iwaniska"}},{"type":"Feature","geometry":{"type":"Point","coordinates":[21.7928027402344,49.5659669732825]},"properties":{"id":11488,"name":"Iwonicz-Zdrój","nazwa":"Iwonicz-Zdrój","miasto":"Iwonicz-Zdrój","type":"city","rodzaj":"miasto","wojewodztwo":"Podkarpackie","wojewodztwoId":"podkarpackie","powiat":"krośnieński","gmina":"Iwonicz-Zdrój"}},{"type":"Feature","geometry":{"type":"Point","coordinates":[23.158313800389973,50.89318765505115]},"properties":{"id":11508,"name":"Izbica","nazwa":"Izbica","miasto":"Izbica","type":"city","rodzaj":"miasto","wojewodztwo":"Lubelskie","wojewodztwoId":"lubelskie","powiat":"krasnostawski","gmina":"Izbica"}},{"type":"Feature","geometry":{"type":"Point","coordinates":[18.762626365531542,52.42062042139121]},"properties":{"id":11511,"name":"Izbica Kujawska","nazwa":"Izbica Kujawska","miasto":"Izbica Kujawska","type":"city","rodzaj":"miasto","wojewodztwo":"Kujawsko-Pomorskie","wojewodztwoId":"kujawsko-pomorskie","powiat":"włocławski","gmina":"Izbica Kujawska"}},{"type":"Feature","geometry":{"type":"Point","coordinates":[19.569847680788758,53.590209402333095]},"properties":{"id":11541,"name":"Iława","nazwa":"Iława","miasto":"Iława","type":"city","rodzaj":"miasto","wojewodztwo":"Warmińsko-Mazurskie","wojewodztwoId":"warminsko-mazurskie","powiat":"iławski","gmina":"Iława"}},{"type":"Feature","geometry":{"type":"Point","coordinates":[15.201776892995849,51.50471344839532]},"properties":{"id":11543,"name":"Iłowa","nazwa":"Iłowa","miasto":"Iłowa","type":"city","rodzaj":"miasto","wojewodztwo":"Lubuskie","wojewodztwoId":"lubuskie","powiat":"żagański","gmina":"Iłowa"}},{"type":"Feature","geometry":{"type":"Point","coordinates":[21.23698684599326,51.16365665043166]},"properties":{"id":11557,"name":"Iłża","nazwa":"Iłża","miasto":"Iłża","type":"city","rodzaj":"miasto","wojewodztwo":"Mazowieckie","wojewodztwoId":"mazowieckie","powiat":"radomski","gmina":"Iłża"}},{"type":"Feature","geometry":{"type":"Point","coordinates":[15.550410295242095,53.43605508207317]},"properties":{"id":11558,"name":"Ińsko","nazwa":"Ińsko","miasto":"Ińsko","type":"city","rodzaj":"miasto","wojewodztwo":"Zachodniopomorskie","wojewodztwoId":"zachodniopomorskie","powiat":"stargardzki","gmina":"Ińsko"}},{"type":"Feature","geometry":{"type":"Point","coordinates":[19.153623663285003,53.387788387783985]},"properties":{"id":11607,"name":"Jabłonowo Pomorskie","nazwa":"Jabłonowo Pomorskie","miasto":"Jabłonowo Pomorskie","type":"city","rodzaj":"miasto","wojewodztwo":"Kujawsko-Pomorskie","wojewodztwoId":"kujawsko-pomorskie","powiat":"brodnicki","gmina":"Jabłonowo Pomorskie"}},{"type":"Feature","geometry":{"type":"Point","coordinates":[21.63197386196587,52.4782622039518]},"properties":{"id":11697,"name":"Jadów","nazwa":"Jadów","miasto":"Jadów","type":"city","rodzaj":"miasto","wojewodztwo":"Mazowieckie","wojewodztwoId":"mazowieckie","powiat":"wołomiński","gmina":"Jadów"}},{"type":"Feature","geometry":{"type":"Point","coordinates":[18.1122548145689,52.7542248380582]},"properties":{"id":11871,"name":"Janikowo","nazwa":"Janikowo","miasto":"Janikowo","type":"city","rodzaj":"miasto","wojewodztwo":"Kujawsko-Pomorskie","wojewodztwoId":"kujawsko-pomorskie","powiat":"inowrocławski","gmina":"Janikowo"}},{"type":"Feature","geometry":{"type":"Point","coordinates":[17.48752698912938,52.75689873866102]},"properties":{"id":12013,"name":"Janowiec Wielkopolski","nazwa":"Janowiec Wielkopolski","miasto":"Janowiec Wielkopolski","type":"city","rodzaj":"miasto","wojewodztwo":"Kujawsko-Pomorskie","wojewodztwoId":"kujawsko-pomorskie","powiat":"żniński","gmina":"Janowiec Wielkopolski"}},{"type":"Feature","geometry":{"type":"Point","coordinates":[22.4107461017751,50.70669986458072]},"properties":{"id":12120,"name":"Janów Lubelski","nazwa":"Janów Lubelski","miasto":"Janów Lubelski","type":"city","rodzaj":"miasto","wojewodztwo":"Lubelskie","wojewodztwoId":"lubelskie","powiat":"janowski","gmina":"Janów Lubelski"}},{"type":"Feature","geometry":{"type":"Point","coordinates":[17.297292982916,51.96879749151]},"properties":{"id":12158,"name":"Jaraczewo","nazwa":"Jaraczewo","miasto":"Jaraczewo","type":"city","rodzaj":"miasto","wojewodztwo":"Wielkopolskie","wojewodztwoId":"wielkopolskie","powiat":"jarociński","gmina":"Jaraczewo"}},{"type":"Feature","geometry":{"type":"Point","coordinates":[17.5016307676708,51.9723848155962]},"properties":{"id":12200,"name":"Jarocin","nazwa":"Jarocin","miasto":"Jarocin","type":"city","rodzaj":"miasto","wojewodztwo":"Wielkopolskie","wojewodztwoId":"wielkopolskie","powiat":"jarociński","gmina":"Jarocin"}},{"type":"Feature","geometry":{"type":"Point","coordinates":[22.6835066279431,50.0187852672347]},"properties":{"id":12234,"name":"Jarosław","nazwa":"Jarosław","miasto":"Jarosław","type":"city","rodzaj":"miasto","wojewodztwo":"Podkarpackie","wojewodztwoId":"podkarpackie","powiat":"jarosławski","gmina":"Jarosław"}},{"type":"Feature","geometry":{"type":"Point","coordinates":[15.012173161258492,51.751402568142794]},"properties":{"id":12318,"name":"Jasień","nazwa":"Jasień","miasto":"Jasień","type":"city","rodzaj":"miasto","wojewodztwo":"Lubuskie","wojewodztwoId":"lubuskie","powiat":"żarski","gmina":"Jasień"}},{"type":"Feature","geometry":{"type":"Point","coordinates":[18.672824243804293,54.699096301517734]},"properties":{"id":12368,"name":"Jastarnia","nazwa":"Jastarnia","miasto":"Jastarnia","type":"city","rodzaj":"miasto","wojewodztwo":"Pomorskie","wojewodztwoId":"pomorskie","powiat":"pucki","gmina":"Jastarnia"}},{"type":"Feature","geometry":{"type":"Point","coordinates":[16.819161858412517,53.422535449401444]},"properties":{"id":12373,"name":"Jastrowie","nazwa":"Jastrowie","miasto":"Jastrowie","type":"city","rodzaj":"miasto","wojewodztwo":"Wielkopolskie","wojewodztwoId":"wielkopolskie","powiat":"złotowski","gmina":"Jastrowie"}},{"type":"Feature","geometry":{"type":"Point","coordinates":[20.947728920684003,51.24612498416806]},"properties":{"id":12377,"name":"Jastrząb","nazwa":"Jastrząb","miasto":"Jastrząb","type":"city","rodzaj":"miasto","wojewodztwo":"Mazowieckie","wojewodztwoId":"mazowieckie","powiat":"szydłowiecki","gmina":"Jastrząb"}},{"type":"Feature","geometry":{"type":"Point","coordinates":[18.60234494941,49.951894810561]},"properties":{"id":12406,"name":"Jastrzębie-Zdrój","nazwa":"Jastrzębie-Zdrój","miasto":"Jastrzębie-Zdrój","type":"city","rodzaj":"miasto","wojewodztwo":"Śląskie","wojewodztwoId":"slaskie","powiat":"Jastrzębie-Zdrój","gmina":"Jastrzębie-Zdrój"}},{"type":"Feature","geometry":{"type":"Point","coordinates":[21.4735177526136,49.7457511147975]},"properties":{"id":12449,"name":"Jasło","nazwa":"Jasło","miasto":"Jasło","type":"city","rodzaj":"miasto","wojewodztwo":"Podkarpackie","wojewodztwoId":"podkarpackie","powiat":"jasielski","gmina":"Jasło"}},{"type":"Feature","geometry":{"type":"Point","coordinates":[16.19361184739,51.0503312630759]},"properties":{"id":12465,"name":"Jawor","nazwa":"Jawor","miasto":"Jawor","type":"city","rodzaj":"miasto","wojewodztwo":"Dolnośląskie","wojewodztwoId":"dolnoslaskie","powiat":"jaworski","gmina":"Jawor"}},{"type":"Feature","geometry":{"type":"Point","coordinates":[22.2857757872534,49.8890894740783]},"properties":{"id":12481,"name":"Jawornik Polski","nazwa":"Jawornik Polski","miasto":"Jawornik Polski","type":"city","rodzaj":"miasto","wojewodztwo":"Podkarpackie","wojewodztwoId":"podkarpackie","powiat":"przeworski","gmina":"Jawornik Polski"}},{"type":"Feature","geometry":{"type":"Point","coordinates":[19.270153052092,50.203731135634]},"properties":{"id":12512,"name":"Jaworzno","nazwa":"Jaworzno","miasto":"Jaworzno","type":"city","rodzaj":"miasto","wojewodztwo":"Śląskie","wojewodztwoId":"slaskie","powiat":"Jaworzno","gmina":"Jaworzno"}},{"type":"Feature","geometry":{"type":"Point","coordinates":[16.4304655879896,50.914423834852]},"properties":{"id":12515,"name":"Jaworzyna Śląska","nazwa":"Jaworzyna Śląska","miasto":"Jaworzyna Śląska","type":"city","rodzaj":"miasto","wojewodztwo":"Dolnośląskie","wojewodztwoId":"dolnoslaskie","powiat":"świdnicki","gmina":"Jaworzyna Śląska"}},{"type":"Feature","geometry":{"type":"Point","coordinates":[21.6415019834197,49.7123671034381]},"properties":{"id":12589,"name":"Jedlicze","nazwa":"Jedlicze","miasto":"Jedlicze","type":"city","rodzaj":"miasto","wojewodztwo":"Podkarpackie","wojewodztwoId":"podkarpackie","powiat":"krośnieński","gmina":"Jedlicze"}},{"type":"Feature","geometry":{"type":"Point","coordinates":[16.3470610342615,50.7249204621414]},"properties":{"id":12594,"name":"Jedlina-Zdrój","nazwa":"Jedlina-Zdrój","miasto":"Jedlina-Zdrój","type":"city","rodzaj":"miasto","wojewodztwo":"Dolnośląskie","wojewodztwoId":"dolnoslaskie","powiat":"wałbrzyski","gmina":"Jedlina-Zdrój"}},{"type":"Feature","geometry":{"type":"Point","coordinates":[21.33139292034685,51.431189386118554]},"properties":{"id":12600,"name":"Jedlnia-Letnisko","nazwa":"Jedlnia-Letnisko","miasto":"Jedlnia-Letnisko","type":"city","rodzaj":"miasto","wojewodztwo":"Mazowieckie","wojewodztwoId":"mazowieckie","powiat":"radomski","gmina":"Jedlnia-Letnisko"}},{"type":"Feature","geometry":{"type":"Point","coordinates":[22.303471376680534,53.28558335650711]},"properties":{"id":12605,"name":"Jedwabne","nazwa":"Jedwabne","miasto":"Jedwabne","type":"city","rodzaj":"miasto","wojewodztwo":"Podlaskie","wojewodztwoId":"podlaskie","powiat":"łomżyński","gmina":"Jedwabne"}},{"type":"Feature","geometry":{"type":"Point","coordinates":[17.349870239935,51.0399268463566]},"properties":{"id":12622,"name":"Jelcz-Laskowice","nazwa":"Jelcz-Laskowice","miasto":"Jelcz-Laskowice","type":"city","rodzaj":"miasto","wojewodztwo":"Dolnośląskie","wojewodztwoId":"dolnoslaskie","powiat":"oławski","gmina":"Jelcz-Laskowice"}},{"type":"Feature","geometry":{"type":"Point","coordinates":[15.7345973898236,50.9031115267224]},"properties":{"id":12627,"name":"Jelenia Góra","nazwa":"Jelenia Góra","miasto":"Jelenia Góra","type":"city","rodzaj":"miasto","wojewodztwo":"Dolnośląskie","wojewodztwoId":"dolnoslaskie","powiat":"Jelenia Góra","gmina":"Jelenia Góra"}},{"type":"Feature","geometry":{"type":"Point","coordinates":[20.746239941704584,53.976250254827605]},"properties":{"id":12750,"name":"Jeziorany","nazwa":"Jeziorany","miasto":"Jeziorany","type":"city","rodzaj":"miasto","wojewodztwo":"Warmińsko-Mazurskie","wojewodztwoId":"warminsko-mazurskie","powiat":"olsztyński","gmina":"Jeziorany"}},{"type":"Feature","geometry":{"type":"Point","coordinates":[19.96884175180867,51.81341547154277]},"properties":{"id":12843,"name":"Jeżów","nazwa":"Jeżów","miasto":"Jeżów","type":"city","rodzaj":"miasto","wojewodztwo":"Łódzkie","wojewodztwoId":"lodzkie","powiat":"brzeziński","gmina":"Jeżów"}},{"type":"Feature","geometry":{"type":"Point","coordinates":[19.829946356704077,49.64915277849944]},"properties":{"id":12881,"name":"Jordanów","nazwa":"Jordanów","miasto":"Jordanów","type":"city","rodzaj":"miasto","wojewodztwo":"Małopolskie","wojewodztwoId":"malopolskie","powiat":"suski","gmina":"Jordanów"}},{"type":"Feature","geometry":{"type":"Point","coordinates":[17.1692377490739,51.6512744875606]},"properties":{"id":13003,"name":"Jutrosin","nazwa":"Jutrosin","miasto":"Jutrosin","type":"city","rodzaj":"miasto","wojewodztwo":"Wielkopolskie","wojewodztwoId":"wielkopolskie","powiat":"rawicki","gmina":"Jutrosin"}},{"type":"Feature","geometry":{"type":"Point","coordinates":[23.055113366826156,50.48081812878849]},"properties":{"id":13074,"name":"Józefów","nazwa":"Józefów","miasto":"Józefów","type":"city","rodzaj":"miasto","wojewodztwo":"Lubelskie","wojewodztwoId":"lubelskie","powiat":"biłgorajski","gmina":"Józefów"}},{"type":"Feature","geometry":{"type":"Point","coordinates":[21.230170733384224,52.1422081139625]},"properties":{"id":13101,"name":"Józefów","nazwa":"Józefów","miasto":"Józefów","type":"city","rodzaj":"miasto","wojewodztwo":"Mazowieckie","wojewodztwoId":"mazowieckie","powiat":"otwocki","gmina":"Józefów"}},{"type":"Feature","geometry":{"type":"Point","coordinates":[21.830365610614916,51.04117913783189]},"properties":{"id":13124,"name":"Józefów nad Wisłą","nazwa":"Józefów nad Wisłą","miasto":"Józefów nad Wisłą","type":"city","rodzaj":"miasto","wojewodztwo":"Lubelskie","wojewodztwoId":"lubelskie","powiat":"opolski","gmina":"Józefów nad Wisłą"}},{"type":"Feature","geometry":{"type":"Point","coordinates":[20.303595451544,50.6402937460701]},"properties":{"id":13158,"name":"Jędrzejów","nazwa":"Jędrzejów","miasto":"Jędrzejów","type":"city","rodzaj":"miasto","wojewodztwo":"Świętokrzyskie","wojewodztwoId":"swietokrzyskie","powiat":"jędrzejowski","gmina":"Jędrzejów"}},{"type":"Feature","geometry":{"type":"Point","coordinates":[16.884082139899284,53.10204167828551]},"properties":{"id":13213,"name":"Kaczory","nazwa":"Kaczory","miasto":"Kaczory","type":"city","rodzaj":"miasto","wojewodztwo":"Wielkopolskie","wojewodztwoId":"wielkopolskie","powiat":"pilski","gmina":"Kaczory"}},{"type":"Feature","geometry":{"type":"Point","coordinates":[18.884161025146,50.564303423873]},"properties":{"id":13293,"name":"Kalety","nazwa":"Kalety","miasto":"Kalety","type":"city","rodzaj":"miasto","wojewodztwo":"Śląskie","wojewodztwoId":"slaskie","powiat":"tarnogórski","gmina":"Kalety"}},{"type":"Feature","geometry":{"type":"Point","coordinates":[18.086844532116928,51.760848676925065]},"properties":{"id":13379,"name":"Kalisz","nazwa":"Kalisz","miasto":"Kalisz","type":"city","rodzaj":"miasto","wojewodztwo":"Wielkopolskie","wojewodztwoId":"wielkopolskie","powiat":"Kalisz","gmina":"Kalisz"}},{"type":"Feature","geometry":{"type":"Point","coordinates":[15.90590634661375,53.29859603904]},"properties":{"id":13381,"name":"Kalisz Pomorski","nazwa":"Kalisz Pomorski","miasto":"Kalisz Pomorski","type":"city","rodzaj":"miasto","wojewodztwo":"Zachodniopomorskie","wojewodztwoId":"zachodniopomorskie","powiat":"drawski","gmina":"Kalisz Pomorski"}},{"type":"Feature","geometry":{"type":"Point","coordinates":[19.676764774789916,49.86683721880465]},"properties":{"id":13407,"name":"Kalwaria Zebrzydowska","nazwa":"Kalwaria Zebrzydowska","miasto":"Kalwaria Zebrzydowska","type":"city","rodzaj":"miasto","wojewodztwo":"Małopolskie","wojewodztwoId":"malopolskie","powiat":"wadowicki","gmina":"Kalwaria Zebrzydowska"}},{"type":"Feature","geometry":{"type":"Point","coordinates":[16.878081852309,50.525002323979]},"properties":{"id":13462,"name":"Kamieniec Ząbkowicki","nazwa":"Kamieniec Ząbkowicki","miasto":"Kamieniec Ząbkowicki","type":"city","rodzaj":"miasto","wojewodztwo":"Dolnośląskie","wojewodztwoId":"dolnoslaskie","powiat":"ząbkowicki","gmina":"Kamieniec Ząbkowicki"}},{"type":"Feature","geometry":{"type":"Point","coordinates":[16.0327257370649,50.7833600242643]},"properties":{"id":13470,"name":"Kamienna Góra","nazwa":"Kamienna Góra","miasto":"Kamienna Góra","type":"city","rodzaj":"miasto","wojewodztwo":"Dolnośląskie","wojewodztwoId":"dolnoslaskie","powiat":"kamiennogórski","gmina":"Kamienna Góra"}},{"type":"Feature","geometry":{"type":"Point","coordinates":[17.519446906333535,53.53287832748494]},"properties":{"id":13520,"name":"Kamień Krajeński","nazwa":"Kamień Krajeński","miasto":"Kamień Krajeński","type":"city","rodzaj":"miasto","wojewodztwo":"Kujawsko-Pomorskie","wojewodztwoId":"kujawsko-pomorskie","powiat":"sępoleński","gmina":"Kamień Krajeński"}},{"type":"Feature","geometry":{"type":"Point","coordinates":[14.772701856581952,53.96844034751667]},"properties":{"id":13523,"name":"Kamień Pomorski","nazwa":"Kamień Pomorski","miasto":"Kamień Pomorski","type":"city","rodzaj":"miasto","wojewodztwo":"Zachodniopomorskie","wojewodztwoId":"zachodniopomorskie","powiat":"kamieński","gmina":"Kamień Pomorski"}},{"type":"Feature","geometry":{"type":"Point","coordinates":[19.49694444,51.20444444]},"properties":{"id":13539,"name":"Kamieńsk","nazwa":"Kamieńsk","miasto":"Kamieńsk","type":"city","rodzaj":"miasto","wojewodztwo":"Łódzkie","wojewodztwoId":"lodzkie","powiat":"radomszczański","gmina":"Kamieńsk"}},{"type":"Feature","geometry":{"type":"Point","coordinates":[22.462379463371,51.470781814148]},"properties":{"id":13581,"name":"Kamionka","nazwa":"Kamionka","miasto":"Kamionka","type":"city","rodzaj":"miasto","wojewodztwo":"Lubelskie","wojewodztwoId":"lubelskie","powiat":"lubartowski","gmina":"Kamionka"}},{"type":"Feature","geometry":{"type":"Point","coordinates":[21.250345083101713,52.07575982422095]},"properties":{"id":13717,"name":"Karczew","nazwa":"Karczew","miasto":"Karczew","type":"city","rodzaj":"miasto","wojewodztwo":"Mazowieckie","wojewodztwoId":"mazowieckie","powiat":"otwocki","gmina":"Karczew"}},{"type":"Feature","geometry":{"type":"Point","coordinates":[15.86517346565305,52.071965904381244]},"properties":{"id":13751,"name":"Kargowa","nazwa":"Kargowa","miasto":"Kargowa","type":"city","rodzaj":"miasto","wojewodztwo":"Lubuskie","wojewodztwoId":"lubuskie","powiat":"zielonogórski","gmina":"Kargowa"}},{"type":"Feature","geometry":{"type":"Point","coordinates":[15.880027215498759,54.037541383953304]},"properties":{"id":13764,"name":"Karlino","nazwa":"Karlino","miasto":"Karlino","type":"city","rodzaj":"miasto","wojewodztwo":"Zachodniopomorskie","wojewodztwoId":"zachodniopomorskie","powiat":"białogardzki","gmina":"Karlino"}},{"type":"Feature","geometry":{"type":"Point","coordinates":[15.7546074551074,50.7747425705052]},"properties":{"id":13858,"name":"Karpacz","nazwa":"Karpacz","miasto":"Karpacz","type":"city","rodzaj":"miasto","wojewodztwo":"Dolnośląskie","wojewodztwoId":"dolnoslaskie","powiat":"karkonoski","gmina":"Karpacz"}},{"type":"Feature","geometry":{"type":"Point","coordinates":[18.19947957746355,54.33442969280444]},"properties":{"id":13915,"name":"Kartuzy","nazwa":"Kartuzy","miasto":"Kartuzy","type":"city","rodzaj":"miasto","wojewodztwo":"Pomorskie","wojewodztwoId":"pomorskie","powiat":"kartuski","gmina":"Kartuzy"}},{"type":"Feature","geometry":{"type":"Point","coordinates":[19.023555858206,50.264373595317]},"properties":{"id":14010,"name":"Katowice","nazwa":"Katowice","miasto":"Katowice","type":"city","rodzaj":"miasto","wojewodztwo":"Śląskie","wojewodztwoId":"slaskie","powiat":"Katowice","gmina":"Katowice"}},{"type":"Feature","geometry":{"type":"Point","coordinates":[21.4679859244823,51.274652226832]},"properties":{"id":14064,"name":"Kazanów","nazwa":"Kazanów","miasto":"Kazanów","type":"city","rodzaj":"miasto","wojewodztwo":"Mazowieckie","wojewodztwoId":"mazowieckie","powiat":"zwoleński","gmina":"Kazanów"}},{"type":"Feature","geometry":{"type":"Point","coordinates":[21.9474057597877,51.3220978705558]},"properties":{"id":14077,"name":"Kazimierz Dolny","nazwa":"Kazimierz Dolny","miasto":"Kazimierz Dolny","type":"city","rodzaj":"miasto","wojewodztwo":"Lubelskie","wojewodztwoId":"lubelskie","powiat":"puławski","gmina":"Kazimierz Dolny"}},{"type":"Feature","geometry":{"type":"Point","coordinates":[20.493312743466966,50.26554663491667]},"properties":{"id":14079,"name":"Kazimierza Wielka","nazwa":"Kazimierza Wielka","miasto":"Kazimierza Wielka","type":"city","rodzaj":"miasto","wojewodztwo":"Świętokrzyskie","wojewodztwoId":"swietokrzyskie","powiat":"kazimierski","gmina":"Kazimierza Wielka"}},{"type":"Feature","geometry":{"type":"Point","coordinates":[21.81261329012062,52.208595317366935]},"properties":{"id":14137,"name":"Kałuszyn","nazwa":"Kałuszyn","miasto":"Kałuszyn","type":"city","rodzaj":"miasto","wojewodztwo":"Mazowieckie","wojewodztwoId":"mazowieckie","powiat":"miński","gmina":"Kałuszyn"}},{"type":"Feature","geometry":{"type":"Point","coordinates":[22.4116550790944,49.9833413857745]},"properties":{"id":14157,"name":"Kańczuga","nazwa":"Kańczuga","miasto":"Kańczuga","type":"city","rodzaj":"miasto","wojewodztwo":"Podkarpackie","wojewodztwoId":"podkarpackie","powiat":"przeworski","gmina":"Kańczuga"}},{"type":"Feature","geometry":{"type":"Point","coordinates":[17.488346384950873,52.99164704954234]},"properties":{"id":14171,"name":"Kcynia","nazwa":"Kcynia","miasto":"Kcynia","type":"city","rodzaj":"miasto","wojewodztwo":"Kujawsko-Pomorskie","wojewodztwoId":"kujawsko-pomorskie","powiat":"nakielski","gmina":"Kcynia"}},{"type":"Feature","geometry":{"type":"Point","coordinates":[20.6314934949156,50.8717373465681]},"properties":{"id":14196,"name":"Kielce","nazwa":"Kielce","miasto":"Kielce","type":"city","rodzaj":"miasto","wojewodztwo":"Świętokrzyskie","wojewodztwoId":"swietokrzyskie","powiat":"Kielce","gmina":"Kielce"}},{"type":"Feature","geometry":{"type":"Point","coordinates":[19.87130015059479,52.268529128480964]},"properties":{"id":14211,"name":"Kiernozia","nazwa":"Kiernozia","miasto":"Kiernozia","type":"city","rodzaj":"miasto","wojewodztwo":"Łódzkie","wojewodztwoId":"lodzkie","powiat":"łowicki","gmina":"Kiernozia"}},{"type":"Feature","geometry":{"type":"Point","coordinates":[18.0022431860354,50.079646403612]},"properties":{"id":14257,"name":"Kietrz","nazwa":"Kietrz","miasto":"Kietrz","type":"city","rodzaj":"miasto","wojewodztwo":"Opolskie","wojewodztwoId":"opolskie","powiat":"głubczycki","gmina":"Kietrz"}},{"type":"Feature","geometry":{"type":"Point","coordinates":[19.119919927045565,52.91201413746092]},"properties":{"id":14353,"name":"Kikół","nazwa":"Kikół","miasto":"Kikół","type":"city","rodzaj":"miasto","wojewodztwo":"Kujawsko-Pomorskie","wojewodztwoId":"kujawsko-pomorskie","powiat":"lipnowski","gmina":"Kikół"}},{"type":"Feature","geometry":{"type":"Point","coordinates":[19.263674044909248,53.608577554483276]},"properties":{"id":14377,"name":"Kisielice","nazwa":"Kisielice","miasto":"Kisielice","type":"city","rodzaj":"miasto","wojewodztwo":"Warmińsko-Mazurskie","wojewodztwoId":"warminsko-mazurskie","powiat":"iławski","gmina":"Kisielice"}},{"type":"Feature","geometry":{"type":"Point","coordinates":[18.1730264237303,52.3708541265907]},"properties":{"id":14432,"name":"Kleczew","nazwa":"Kleczew","miasto":"Kleczew","type":"city","rodzaj":"miasto","wojewodztwo":"Wielkopolskie","wojewodztwoId":"wielkopolskie","powiat":"koniński","gmina":"Kleczew"}},{"type":"Feature","geometry":{"type":"Point","coordinates":[23.32643988585186,52.574743354135066]},"properties":{"id":14465,"name":"Kleszczele","nazwa":"Kleszczele","miasto":"Kleszczele","type":"city","rodzaj":"miasto","wojewodztwo":"Podlaskie","wojewodztwoId":"podlaskie","powiat":"hajnowski","gmina":"Kleszczele"}},{"type":"Feature","geometry":{"type":"Point","coordinates":[21.450930080153682,50.65664448161547]},"properties":{"id":14523,"name":"Klimontów","nazwa":"Klimontów","miasto":"Klimontów","type":"city","rodzaj":"miasto","wojewodztwo":"Świętokrzyskie","wojewodztwoId":"swietokrzyskie","powiat":"sandomierski","gmina":"Klimontów"}},{"type":"Feature","geometry":{"type":"Point","coordinates":[18.21457678399,50.9730725303257]},"properties":{"id":14583,"name":"Kluczbork","nazwa":"Kluczbork","miasto":"Kluczbork","type":"city","rodzaj":"miasto","wojewodztwo":"Opolskie","wojewodztwoId":"opolskie","powiat":"kluczborski","gmina":"Kluczbork"}},{"type":"Feature","geometry":{"type":"Point","coordinates":[18.6669356419839,50.2230907318361]},"properties":{"id":14667,"name":"Knurów","nazwa":"Knurów","miasto":"Knurów","type":"city","rodzaj":"miasto","wojewodztwo":"Śląskie","wojewodztwoId":"slaskie","powiat":"gliwicki","gmina":"Knurów"}},{"type":"Feature","geometry":{"type":"Point","coordinates":[22.919680280345357,53.31265899174684]},"properties":{"id":14672,"name":"Knyszyn","nazwa":"Knyszyn","miasto":"Knyszyn","type":"city","rodzaj":"miasto","wojewodztwo":"Podlaskie","wojewodztwoId":"podlaskie","powiat":"moniecki","gmina":"Knyszyn"}},{"type":"Feature","geometry":{"type":"Point","coordinates":[17.2266939700191,51.7165964887889]},"properties":{"id":14749,"name":"Kobylin","nazwa":"Kobylin","miasto":"Kobylin","type":"city","rodzaj":"miasto","wojewodztwo":"Wielkopolskie","wojewodztwoId":"wielkopolskie","powiat":"krotoszyński","gmina":"Kobylin"}},{"type":"Feature","geometry":{"type":"Point","coordinates":[16.998409216507238,54.440540606591114]},"properties":{"id":14762,"name":"Kobylnica","nazwa":"Kobylnica","miasto":"Kobylnica","type":"city","rodzaj":"miasto","wojewodztwo":"Pomorskie","wojewodztwoId":"pomorskie","powiat":"słupski","gmina":"Kobylnica"}},{"type":"Feature","geometry":{"type":"Point","coordinates":[21.195965416131397,52.33934335368086]},"properties":{"id":14781,"name":"Kobyłka","nazwa":"Kobyłka","miasto":"Kobyłka","type":"city","rodzaj":"miasto","wojewodztwo":"Mazowieckie","wojewodztwoId":"mazowieckie","powiat":"wołomiński","gmina":"Kobyłka"}},{"type":"Feature","geometry":{"type":"Point","coordinates":[22.44410052276981,51.63993927055005]},"properties":{"id":14849,"name":"Kock","nazwa":"Kock","miasto":"Kock","type":"city","rodzaj":"miasto","wojewodztwo":"Lubelskie","wojewodztwoId":"lubelskie","powiat":"lubartowski","gmina":"Kock"}},{"type":"Feature","geometry":{"type":"Point","coordinates":[21.7741341674591,50.2431906675811]},